Address,lat,lng
"365 Cariboo Hwy, 100 Mile House, BC V0K 2E1, Canada",51.6431345,-121.2963668
"108 Mile Ranch, BC V0K 2Z0, Canada",51.750319,-121.345478
"BC-97, British Columbia, Canada",54.6985492,-122.7918979
"1556 Hwy 97 N, Dawson Creek, BC V1G, Canada",55.7647775,-120.2466534
"3680 Townline Rd, Abbotsford, BC V2T 0G6, Canada",49.0689833,-122.3596202
"2520 Montvue Ave, Abbotsford, BC V2S 2E5, Canada",49.04760570000001,-122.2884697
"32470 Simon Ave, Abbotsford, BC V2T 4J2, Canada",49.05288789999999,-122.3245616
"2525 McCallum Rd #120, Abbotsford, BC V2S 3R1, Canada",49.04783339999999,-122.293969
"33790 Essendene Ave, Abbotsford, BC V2S 2H2, Canada",49.0486175,-122.289305
"3033 Immel St #150, Abbotsford, BC V2S 6S2, Canada",49.0572467,-122.2728421
"32131 Marshall Rd, Abbotsford, BC V2T 1A3, Canada",49.0385802,-122.3337435
"32900 South Fraser Way #401A, Abbotsford, BC V2S 5A1, Canada",49.04951459999999,-122.310486
"28060 Fraser Hwy, Abbotsford, BC V4X 1K7, Canada",49.0569467,-122.4473865
"Sumas Mountain Village 170, 2362 Whatcom Rd #135, Abbotsford, BC V3G 1E1, Canada",49.0448809,-122.2223173
"4a, 34252 Marshall Rd #1, Abbotsford, BC V2S 1L9, Canada",49.0380459,-122.2755275
"1900 N Parallel Rd # 100, Abbotsford, BC V3G 2C6, Canada",49.0370571,-122.2300655
"3122 Mount Lehman Rd Unit M115, Abbotsford, BC V2T 0C5, Canada",49.0587937,-122.3770177
"31205 Maclure Rd #1, Abbotsford, BC V2T 5E5, Canada",49.0551147,-122.3594734
"31940 South Fraser Way #30, Abbotsford, BC V2T 1V6, Canada",49.048188,-122.338418
"1201 Sumas Way #101, Abbotsford, BC V2S 8H2, Canada",49.0242873,-122.2670097
"1520 McCallum Rd Unit #104, Abbotsford, BC V2T 8A3, Canada",49.030778,-122.292211
"2618 McMillan Rd #102, Abbotsford, BC V3G 1C4, Canada",49.0493827,-122.2596959
"1828 McCallum Rd #125, Abbotsford, BC V2S 0H9, Canada",49.0354859,-122.2915031
"2388 Whatcom Rd, Abbotsford, BC V3G 0C1, Canada",49.0452422,-122.2225973
"32700 South Fraser Way #300, Abbotsford, BC V2T 4M5, Canada",49.04995049999999,-122.3208453
"2406 Hot Springs Rd, Agassiz, BC V0M 1K0, Canada",49.2477695,-121.7826914
"1810 BC-9, Agassiz, BC V0M 0A6, Canada",49.237005,-121.7612251
"26444 32 Ave, Langley Twp, BC V4W 3E8, Canada",49.0598023,-122.4909786
"27094 Fraser Hwy, Aldergrove, BC V4W 3P6, Canada",49.05799990000001,-122.4736129
"3650 248 St, Langley Twp, BC V4W 1X7, Canada",49.0679096,-122.5356669
"81 Fir St, Alert Bay, BC V0N 0C3, Canada",50.5857719,-126.9289276
"BC-20, British Columbia, Canada",52.0185601,-124.2983621
"6638 Christensen Rd, Anahim Lake, BC V0L 0A7, Canada",52.4649851,-125.3025186
"6621 Christensen Rd, Anahim Lake, BC V0L 0A7, Canada",52.4638308,-125.3054159
"2559 Marina Rd, Columbia-Shuswap F, BC V0E 1M8, Canada",50.9644532,-119.1733809
"3400 Smith Dr, Armstrong, BC V4Y 0A1, Canada",50.4479701,-119.1834682
"2570 Pleasant Valley Blvd, Armstrong, BC V4Y 0A8, Canada",50.4483877,-119.193406
"Box 189, 4406 Widmark Subdivision, Arras, BC V0C 1B0, Canada",55.7586708,-120.4838409
"90 Discovery Ave, Atlin, BC V0W 1A0, Canada",59.5750099,-133.7046355
"3838 Avola East Frontage Rd, Avola, BC V0E 1C0, Canada",51.7835706,-119.3251366
"5610 Nazko Rd, Quesnel, BC V2J 3J9, Canada",52.9874975,-122.983428
"7824 BC-3A, Balfour, BC V0G 1C0, Canada",49.6250499,-116.9619459
"Bamfield, BC, Canada",48.83328909999999,-125.142835
"242 Frigate Rd, Bamfield, BC V0R 1B0, Canada",48.82609799999999,-125.1338571
"3680 Sweet Rd, Baynes Lake, BC V0B 1T4, Canada",49.2240562,-115.2067947
"328 Grizzly Ave, Bear Lake, BC V0J 3G0, Canada",54.4953635,-122.6827248
"5833 Kelowna-Rock Creek Hwy, Beaverdell, BC V0H 1A0, Canada",49.4347025,-119.088714
"71 Waglisla St, Bella Bella, BC V0T 0B2, Canada",52.16342179999999,-128.1435878
"4213 Likely Rd, Cariboo F, BC 45267, Canada",52.3934711,-121.8808998
"5375 Big White Rd #108, Beaverdell, BC V1P 1P3, Canada",49.721901,-118.9276522
"5375 Big White Rd, Beaverdell, BC V1P 1P3, Canada",49.721901,-118.9276522
"Birch Island, BC V0E 0E2, Canada",51.592765,-119.894231
"8268 N Island Hwy #1, Black Creek, BC V9J 1H7, Canada",49.833528,-125.1290196
"2411 Golf Course Dr, Blind Bay, BC V0E 1H1, Canada",50.8723699,-119.3837775
"2798 Balmoral Rd, Blind Bay, BC V0E 1H1, Canada",50.8768219,-119.3597629
"Blind Channel, BC V0P 1B0, Canada",50.41287699999999,-125.503265
"848 Cedar St, Blue River, BC V0E 1J0, Canada",52.1076073,-119.3072361
"48045 Trans - Canada Hwy, Boston Bar, BC V0K 1C0, Canada",49.8688878,-121.4428531
"48100 Trans - Canada Hwy #370, Boston Bar, BC V0K 1C0, Canada",49.8696446,-121.4421776
"996 Dorman Rd #102, Gibsons, BC V0N 1V0, Canada",49.379193,-123.3381823
"471 Bowen Island Trunk Rd, Bowen Island, BC V0N 1G2, Canada",49.3793308,-123.3371414
"6871 WEST, Island Hwy W, Bowser, BC V0R 1G0, Canada",49.43331690000001,-124.6653377
"7180 W Saanich Rd, Brentwood Bay, BC V8M 1P6, Canada",48.5773207,-123.4488241
"7561 Bridge Lake Business Rte, Cariboo L, BC V0K 1X2, Canada",51.4777376,-120.7255583
"2854 BC-95, Brisco, BC V0A 0A8, Canada",50.8279098,-116.270416
"102 Prospector Wy #101, Britannia Beach, BC V0N 1J0, Canada",49.6243097,-123.20576
"4125 Hastings St, Burnaby, BC V5C 2J3, Canada",49.2811677,-123.0133624
"5820 Marine Dr, Burnaby, BC V7W 2R9, Canada",49.2051622,-122.9795855
"7557 Edmonds St, Burnaby, BC V3N 1B5, Canada",49.2226113,-122.9442435
"#9, 1601 Burnwood Dr #9, Burnaby, BC V5A 4H1, Canada",49.2696882,-122.9463744
"5665 Kingsway, Burnaby, BC V5H 2G6, Canada",49.2229974,-122.9813882
"1899 Rosser Ave #109, Burnaby, BC V5C 6R5, Canada",49.2669122,-123.0066466
"5097 Canada Wy, Burnaby, BC V5E 3N2, Canada",49.2392498,-122.9634209
"5901 Broadway #18, Burnaby, BC V5B 2Y1, Canada",49.2654418,-122.9779096
"7651 Royal Oak Ave, Burnaby, BC V5J 4J8, Canada",49.2139501,-122.9891466
"7755 6th St, New Westminster, BC V3L 3C8, Canada",49.22060399999999,-122.9302187
"7000 Lougheed Hwy. #5, Burnaby, BC V5A 1W2, Canada",49.2577347,-122.9582113
"3686 Bonneville Pl #106, Burnaby, BC V3N 4T6, Canada",49.2520286,-122.9148838
"166 BC-16 #101, Burns Lake, BC V0J 1E2, Canada",54.2255,-125.7544852
"Eakin Settlement Rd, Bulkley-Nechako, BC V0J 2P0, Canada",53.846675,-125.868743
"1064 Trans - Canada Hwy, Cache Creek, BC V0K 1H0, Canada",50.8099375,-121.3070642
"3692 S Island Hwy, Campbell River, BC V9H 1M7, Canada",49.94961559999999,-125.1993385
"801 Hilchey Rd 203 205, Campbell River, BC V9H 1T8, Canada",49.97326870000001,-125.2459595
"1054 S Island Hwy, Campbell River, BC V9W 1B3, Canada",49.9882518,-125.2266137
"84 Dogwood St, Campbell River, BC V9W 2X7, Canada",50.00892409999999,-125.2480911
"1342 Shoppers Row, Campbell River, BC V9W 2E1, Canada",50.0286368,-125.246007
"1760 Island Hwy, Campbell River, BC V9W 4L6, Canada",50.033448,-125.2677102
"3930 S Island Hwy, Campbell River, BC V9H 1H8, Canada",49.9245866,-125.1842625
"41040 Gold River Hwy, Campbell River, BC V9W 5C5, Canada",49.8922253,-125.652923
"125 Brant Dr, Campbell River, BC V9H 1V8, Canada",50.014942,-125.2857675
"1328 Island Hwy, Campbell River, BC V9W 8C9, Canada",50.03424580000001,-125.2471624
"465 Merecroft Rd a7, Campbell River, BC V9W, Canada",49.999299,-125.2462153
"2207 Glenmore Rd, Campbell River, BC V9H 1E1, Canada",49.86957109999999,-125.1290515
"1400 Dogwood St #400, Campbell River, BC V9W 3A6, Canada",50.0296166,-125.2521598
"8953 Arbuckle St, Canal Flats, BC V0B 1B0, Canada",50.15619539999999,-115.8091731
"7296 Canim Lake S Rd, Canim Lake, BC V0K 1J0, Canada",51.7681958,-120.8983014
"7390 50 St NE, Canoe, BC V0E 1K0, Canada",50.75378569999999,-119.2271325
"4493 Canyon-Lister Rd, Canyon, BC V0B 1C1, Canada",49.0806756,-116.4480961
"1965 Columbia Ave, Castlegar, BC V1N 2W0, Canada",49.29691709999999,-117.6528074
"651 18 St, Castlegar, BC V1N 2N1, Canada",49.3004841,-117.6561701
"2347 BC-3A, Castlegar, BC V1N 4P3, Canada",49.4108672,-117.5404099
"2111 Main St, Cawston, BC V0X 1C1, Canada",49.1790531,-119.7595765
"4953 Cecil Lake Rd, Cecil Lake, BC V0C 1G0, Canada",56.3043495,-120.5779045
"5328 Squilax - Anglemont Rd, Celista, BC V0E 1M6, Canada",50.9421074,-119.3498278
"Charlie Lake, Peace River, BC V0C, Canada",56.3365824,-120.9937345
"8774 Holding Rd, Chase, BC V0E 1M2, Canada",50.94427,-119.6643127
"9576 Chemainus Rd, Chemainus, BC V0R 1K5, Canada",48.9143677,-123.7128913
"3055 Oak St #107e, Chemainus, BC V0R 4K0, Canada",48.9255702,-123.7272438
"1193 E Hwy 6, Cherryville, BC V0E 2G3, Canada",50.2460153,-118.6283797
"187 N Fork Rd, Cherryville, BC V0E 2G3, Canada",50.243894,-118.603919
"4905 S Access Rd, Chetwynd, BC V0C 1J0, Canada",55.69699689999999,-121.6290481
"43971 Industrial Way, Chilliwack, BC V2R 3A4, Canada",49.1462952,-122.0081315
"8247 Young Rd, Chilliwack, BC V2P 4N8, Canada",49.1518051,-121.9516485
"2a, 9701 Menzies St #1, Chilliwack, BC V2P 5Z6, Canada",49.17854639999999,-121.9341362
"5865 Vedder Rd, Chilliwack, BC V2R 1C3, Canada",49.1090297,-121.9593371
"6640 Vedder Rd, Chilliwack, BC V2R 0J2, Canada",49.123571,-121.9591419
"45610 Luckakuck Way building c, Chilliwack, BC V2R 1A2, Canada",49.1394189,-121.96257
"41582 Yale Rd, Chilliwack, BC V2R 4J3, Canada",49.1300801,-122.0733793
"8559 Young Rd, Chilliwack, BC V2P 4P2, Canada",49.1579756,-121.9528895
"8249 Eagle Landing Pkwy f 418, Chilliwack, BC V2R 0P9, Canada",49.1516296,-121.9798503
"45844 Yale Rd, Chilliwack, BC V2P 2N8, Canada",49.1651191,-121.9577644
"45850 Yale Rd #10, Chilliwack, BC V2P 4N6, Canada",49.16572859999999,-121.9575388
"51273 Yale Rd, Chilliwack, BC V0X 1X2, Canada",49.1821515,-121.8059775
"A-46298 Yale Rd, Chilliwack, BC V2P 2P6, Canada",49.1728351,-121.9460789
"5960 Tyson Rd #101, Chilliwack, BC V2R 3R5, Canada",49.1103682,-121.9761604
"5615 Teskey Way Suite 201, Chilliwack, BC V2R 0K5, Canada",49.1040816,-121.9347749
"45555 Market Way #5, Chilliwack, BC V2R 0M5, Canada",49.1049138,-121.9639441
"53003 Bunker Rd, Rosedale, BC V0X 1X1, Canada",49.1845186,-121.7636999
"42221 Yarrow Central Rd, Chilliwack, BC V2R 5E3, Canada",49.0823021,-122.0561494
"42220 Yarrow Central Rd, Chilliwack, BC V2R 5E4, Canada",49.081834,-122.0561389
"42231 Yarrow Central Rd, Chilliwack, BC V2R 5E3, Canada",49.0823365,-122.0557672
"45779 Luckakuck Way, Chilliwack, BC V2R 4E8, Canada",49.14365489999999,-121.9603028
"1590 McGregor Frontage Rd, Christina Lake, BC V0H 1E0, Canada",49.03990539999999,-118.2077229
"1819 BC-3, Christina Lake, BC V0H 1E2, Canada",49.0666778,-118.2130196
"1720 Sandner Frontage Rd, Christina Lake, BC V0H 1E3, Canada",49.04569919999999,-118.2041133
"228 Yellowhead Hwy, Clearwater, BC V0E 1N2, Canada",51.64718569999999,-120.0497401
"17745 64 Ave, Surrey, BC V3S 1Z2, Canada",49.12001799999999,-122.7317458
"1400 Cowichan Bay Rd #49, Cobble Hill, BC V0R 1L3, Canada",48.71093949999999,-123.6079941
"3566 Holland Ave, Cobble Hill, BC V0R 1L2, Canada",48.6891073,-123.6029616
"12408 Kalamalka Rd, Coldstream, BC V1B 1M3, Canada",50.2302367,-119.2637056
"6015 BC-6, Coldstream, BC V1B 3E2, Canada",50.2400558,-119.0923278
"Coldstream, BC, Canada",50.223641,-119.228205
"1905 Sooke Rd unit 4, Victoria, BC V9B 1J2, Canada",48.4416234,-123.4684866
"345 Latoria Blvd #104, Victoria, BC V9C 0L7, Canada",48.4067893,-123.4892598
"2244 Sooke Rd, Victoria, BC V9B 2A6, Canada",48.4347433,-123.4932361
"649 Anderton Rd, Comox, BC V9M 2J1, Canada",49.6864303,-124.9354448
"1496 Ryan Rd E, Comox, BC V0R 2K0, Canada",49.7153692,-124.912614
"3080 Comox Rd, Courtenay, BC V9N 3P8, Canada",49.6790731,-124.963006
"2484 Alberni Hwy, Coombs, BC V0R 1M0, Canada",49.3025652,-124.4353824
"1125 Falcon Dr, Coquitlam, BC V3E 2G2, Canada",49.279683,-122.8175569
"319 North Rd, Coquitlam, BC V3N 4J5, Canada",49.24291729999999,-122.8916284
"580 Clarke Rd #100, Coquitlam, BC V3J 0G4, Canada",49.26264,-122.88816
"Coquitlam, BC, Canada",49.2837626,-122.7932065
"170 Golden Dr, Coquitlam, BC V3K 6J1, Canada",49.2329991,-122.8204817
"405 North Rd, Coquitlam, BC V3K 3V9, Canada",49.24657699999999,-122.8914172
"1000 Austin Ave, Coquitlam, BC V3K 3P1, Canada",49.2486918,-122.8672132
"3025 Lougheed Hwy. #785, Coquitlam, BC V3B 6S2, Canada",49.2759203,-122.7940918
"1175 Johnson St #390, Coquitlam, BC V3B 7K1, Canada",49.28221,-122.80086
"1410 Parkway Blvd, Coquitlam, BC V3E 3J7, Canada",49.2960109,-122.8029428
"2662 Austin Ave #11, Coquitlam, BC V3K 6C4, Canada",49.24865020000001,-122.8172577
"2773 Barnet Hwy 25 d, Coquitlam, BC V3B 7A1, Canada",49.2781919,-122.8072461
"140 Schoolhouse St, Coquitlam, BC V3K 6V9, Canada",49.2344294,-122.8530709
"Envision Credit Union, 3025 Lougheed Hwy., Coquitlam, BC V3B 6S2, Canada",49.27499,-122.7930223
"Parking lot, 1301 Lougheed Hwy., Coquitlam, BC V3K 6P9, Canada",49.2350801,-122.8565551
"1611 Forrest Rd, Squirrel Cove, BC V0P 1T0, Canada",50.1178628,-124.9128666
"2355 Mansfield Dr, Courtenay, BC V9N 2M2, Canada",49.677856,-124.9810928
"275 8th St, Courtenay, BC V9N 1N4, Canada",49.6894731,-124.9969399
"1599 Cliffe Ave, Courtenay, BC V9N 2K6, Canada",49.6838898,-124.9927538
"1003 Ryan Rd, Courtenay, BC V9N 3R6, Canada",49.69861539999999,-124.9847526
"444 Lerwick Rd #101, Courtenay, BC V9N 9G4, Canada",49.7102313,-124.9635389
"2751 Cliffe Ave, Courtenay, BC V9N 2L8, Canada",49.6734751,-124.9837304
"1745 Cowichan Bay Rd, Cowichan Bay, BC V0R 0C2, Canada",48.7406647,-123.6208336
"21 Cranbrook St N, Cranbrook, BC V1C 3P7, Canada",49.512876,-115.768221
"22 7 Ave S, Cranbrook, BC V1C 2J1, Canada",49.5113317,-115.7715869
"Willowbrook Dr, Cranbrook, BC V1C, Canada",49.5276124,-115.7457234
"2455 30th Ave S, Cranbrook, BC V1C 7A4, Canada",49.486477,-115.7403532
"16050 BC-3A, Crawford Bay, BC V0B 1E0, Canada",49.6757581,-116.8240447
"1303 BC-6, Crescent Valley, BC V0G 1H0, Canada",49.4462975,-117.5580534
"1507 Canyon St, Creston, BC V0B 1G3, Canada",49.0952908,-116.5080526
"1534 Joan Ave, Crofton, BC V0R 1R0, Canada",48.8643941,-123.6415222
"8132 York Ave, Crofton, BC V0R 1R0, Canada",48.8646254,-123.6460365
"3696 Columbia Valley Hwy, Cultus Lake, BC V2R 5A6, Canada",49.0699958,-121.9622573
"2692 Dunsmuir Ave, Cumberland, BC V0R 1S0, Canada",49.61900079999999,-125.0309826
"12121 8th St, Dawson Creek, BC V1G 0B8, Canada",55.7379165,-120.2252242
"10100 8th St, Dawson Creek, BC V1G 3P7, Canada",55.7580706,-120.2238111
"11000 8th St #2, Dawson Creek, BC V1G 4K6, Canada",55.7501513,-120.2209884
"Dawsons Landing, BC, Canada",51.5760835,-127.5910852
"100 Boulder St, Dease Lake, BC V0C 1L0, Canada",58.43813749999999,-129.9901433
"10190 River Rd, Delta, BC V4C 2R3, Canada",49.1562984,-122.9406565
"8310 112 St, Delta, BC V4C 7A2, Canada",49.15487719999999,-122.91204
"6439 120 St, Delta, BC V4E 3H6, Canada",49.1206372,-122.8921361
"6574 Ladner Trunk Rd, Delta, BC V4K 3M2, Canada",49.0894667,-123.0411101
"8037 120 St, Delta, BC V4C 6P7, Canada",49.1495131,-122.8910173
"6955 120 St, Delta, BC V4E 2A8, Canada",49.1294785,-122.8909747
"5449 48 Ave, Delta, BC V4K 1W6, Canada",49.0905044,-123.0725102
"8473 120 St, Delta, BC V4C 6R2, Canada",49.1572754,-122.8909066
"8899 120 St, Delta, BC V4C 6R6, Canada",49.16494600000001,-122.8907926
"10757 Delsom Crescent, Delta, BC V4C 0B6, Canada",49.1553062,-122.9256447
"4857 Elliott St #114, Delta, BC V4K 2X7, Canada",49.09118650000001,-123.084235
"1215 56 St, Delta, BC V4L 2A6, Canada",49.0252078,-123.0695356
"7229 120 St, Delta, BC V4C 6P5, Canada",49.1347266,-122.8919825
"1143 56 St, Delta, BC V4L 2A2, Canada",49.0231621,-123.0701933
"1069 NW Rd, Denman Island, BC V0R 0C4, Canada",49.53499559999999,-124.8164711
"1 Shearwater Rd, Denny Island, BC V0T 1B0, Canada",52.1469079,-128.0901211
"41699 Lougheed Hwy., Deroche, BC V0M 1G0, Canada",49.1904244,-122.0712758
"41679 Lougheed Hwy., Deroche, BC V0M 1G0, Canada",49.1898535,-122.0716473
"11942 BC-3A, Boswell, BC V0B 1A0, Canada",49.4377136,-116.7550277
"8793 River Rd S, Dewdney, BC V0M 1H0, Canada",49.1616267,-122.1964955
"3330 Cowichan Lake Rd #106, Duncan, BC V9L 4C4, Canada",48.7914,-123.73712
"127 Trans - Canada Hwy, Duncan, BC V9L 3P8, Canada",48.7745867,-123.7003146
"2900 Drinkwater Rd, Duncan, BC V9L 6C6, Canada",48.8023052,-123.7172815
"5777 Trans - Canada Hwy f, Duncan, BC V9L 3R8, Canada",48.7807114,-123.6980457
"4485 Trans - Canada Hwy a, Duncan, BC V9L 6L8, Canada",48.7295025,-123.6387231
"2755 Beverly St, Duncan, BC V9L 6C8, Canada",48.7861602,-123.7077782
"4562 Eagle Bay Rd, Eagle Bay, BC V0E 1T0, Canada",50.9323363,-119.2291915
"Parking lot, 5061 BC-3, Manning Park, BC V0X 1R0, Canada",49.13548369999999,-120.6183754
"4806 Selkirk Ave, Edgewater, BC V0A 1E0, Canada",50.69782470000001,-116.1350329
"217 Lakeshore Ave, Edgewood, BC V0G 1J0, Canada",49.7781902,-118.1406969
"6781 Bathgate Rd, Sechelt, BC V0N 2H4, Canada",49.7490573,-123.9304521
"808 Michel Rd, Elkford, BC V0B 1H0, Canada",50.0246738,-114.9195408
"5385 BC-3, Elko, BC V0B 1J0, Canada",49.3013257,-115.1160347
"1510 George St, Enderby, BC V0E 1V0, Canada",50.5553575,-119.1414396
"900 George St, Enderby, BC V0E 1V0, Canada",50.5504144,-119.1402681
"895 Enderby Mabel Lake Rd, Enderby, BC V4Y 4K8, Canada",50.5561386,-119.0150722
"3514 Mabel Lake Forest service Rd, Lumby, BC V0E 2G6, Canada",50.4893373,-118.7178838
"3705 BC-3, Arrow Creek, BC V0B 1G1, Canada",49.09048809999999,-116.4634476
"1544 Grafton Ave, Errington, BC V0R 1V0, Canada",49.289154,-124.3703578
"533 Admirals Rd, Victoria, BC V9A 2N5, Canada",48.42973019999999,-123.4167737
"856 Esquimalt Rd, Victoria, BC V9A 3M4, Canada",48.431801,-123.3986968
"1153 Esquimalt Rd #12, Victoria, BC V9A 5G6, Canada",48.4292728,-123.4105698
"Fairmont Hot Springs, BC V0A 1K4, Canada",50.335927,-115.851186
"5744 BC-97, Falkland, BC V0E 1W1, Canada",50.5006353,-119.5583464
"6856 Island Hwy S, Fanny Bay, BC V0R 1W0, Canada",49.525502,-124.848981
"BC-3, Fernie, BC, Canada",49.5070331,-115.0654619
"1641 7 Ave, Fernie, BC V0B 1M0, Canada",49.51498369999999,-115.0584495
"792 2 Ave, Fernie, BC V0B 1M0, Canada",49.5047981,-115.0587322
"5339 Fernie Ski Hill Rd, Fernie, BC V0B 1M0, Canada",49.462703,-115.0857393
"318 Stephen Ave, Field, BC V0A 1L0, Canada",51.3950419,-116.489821
"4525 Canim-Hendrix Lake Rd, Forest Grove, BC V0K 1G0, Canada",51.7668075,-121.0968609
"3995 50th Ave S, Fort Nelson, BC V0C 1R0, Canada",58.80105630000001,-122.6773417
"470 Stuart Dr W #7, Fort St James, BC V0J 1P0, Canada",54.4444415,-124.257455
"4131 Sowchea Rd, Fort St James, BC V0J 1P0, Canada",54.42398840000001,-124.308381
"10419 Alaska Rd S, Fort St John, BC V1J 1B1, Canada",56.23855469999999,-120.855207
"8540 Alaska Rd N, Fort St John, BC V1J 5L6, Canada",56.2296534,-120.8206609
"9924 110 Ave, Fort St John, BC V1J 2T1, Canada",56.2554276,-120.8469996
"Parking lot, Parking lot, 9803 93 Ave, Fort St John, BC V1J 6W9, Canada",56.2387642,-120.8446297
"9104 100 Ave #101, Fort St John, BC V1J 1X4, Canada",56.2467698,-120.8308264
"8155 100 Ave, Fort St John, BC V1J 1W4, Canada",56.2461305,-120.8130481
"11004 100 Ave, Fort St John, BC V1J 1Z8, Canada",56.24669729999999,-120.864487
"575 N Rd #4, Gabriola, BC V0R 1X3, Canada",49.1731276,-123.8450264
"3350 Coast Rd, Gabriola, BC V8K 1E1, Canada",49.14832089999999,-123.6972507
"61 Georgeson Bay Rd, Galiano Island, BC V0N 0E9, Canada",48.89011989999999,-123.3470351
"14 Madrona Dr, Mayne Island, BC V0N 2J0, Canada",48.8786915,-123.3182515
"4958 Lyons Rd, Garden Bay, BC V0N 1S0, Canada",49.6322638,-124.0278298
"4907 Pool Rd, Garden Bay, BC V0N 1S0, Canada",49.6317147,-124.0309879
"40330 Tantalus Rd, Squamish, BC V0N 0C2, Canada",49.7394711,-123.1332368
"502 12 Ave, Genelle, BC V0G 1G0, Canada",49.2127436,-117.6912786
"412 Marine Dr, Gibsons, BC V0N 1V4, Canada",49.4016875,-123.5049682
"1100 BC-101 #101, Gibsons, BC V0N 1V7, Canada",49.4077171,-123.5310111
"5150 Gillies Bay Rd, Gillies Bay, BC V0N 1W0, Canada",49.67922129999999,-124.4768786
"14869 Lillooet-Pioneer Rd, Gold Bridge, BC V0K 1P0, Canada",50.8512625,-122.8390445
"390 Muchalat Dr #4, Gold River, BC V0P 1G0, Canada",49.7793006,-126.0495339
"1203 9 St S, Golden, BC V0A 1H0, Canada",51.2964893,-116.9584689
"1049 Trans - Canada Hwy, Golden, BC V0A 1H2, Canada",51.3112875,-116.9718753
"1545 Kicking Horse Trl, Golden, BC V0A 1H0, Canada",51.2979838,-117.0470238
"1606 Cecil Lake Rd, Goodlow, BC V0C 0A9, Canada",56.33421999999999,-120.13725
"1675 Central Ave, Grand Forks, BC V0H 1H0, Canada",49.029756,-118.4578502
"6401 BC-3, Grand Forks, BC V0H 1H5, Canada",49.02551279999999,-118.4224926
"70 Hagen St, Granisle, BC V0J 1W0, Canada",54.8861989,-126.2077795
"3335 BC-93, Grasmere, BC V0B 1R0, Canada",49.1029754,-115.0856948
"14729 BC-3A, Gray Creek, BC V0B 1S0, Canada",49.6034251,-116.7946179
"135 3 Ave, Grindrod, BC V0E 1Y0, Canada",50.6270074,-119.1210848
"8445 271 Rd, Groundbirch, BC V0C 0B4, Canada",55.7807994,-120.9238467
"BC-20, British Columbia, Canada",52.0185601,-124.2983621
"7816 Fawn Rd, Halfmoon Bay, BC V0N 1Y1, Canada",49.4742877,-123.8702958
"5642 Mintie Rd, Halfmoon Bay, BC V0N 1Y2, Canada",49.5116711,-123.9098114
"5411 Secret Cove Rd, Halfmoon Bay, BC V0N 1Y2, Canada",49.5343173,-123.9646314
"222 Cedar Ave, Harrison Hot Springs, BC V0M 1K0, Canada",49.3015937,-121.7844492
"46001 Lougheed Hwy., Agassiz, BC V0M 1A0, Canada",49.2515298,-121.9575473
"100 Strayhorse Rd, Hedley, BC V0X 1K0, Canada",49.3922375,-119.9034412
"897 Scott Ave, Hedley, BC V0X 1K0, Canada",49.3579465,-120.0763134
"1536 W Rd, Heriot Bay, BC V0P 0A7, Canada",50.1010907,-125.2080056
"BC-97, British Columbia, Canada",54.6985492,-122.7918979
"39200 BC-97, Hixon, BC V0K 1S0, Canada",53.4165786,-122.5824071
"2 E Hardy Way, Mount Waddington B, BC V0N 1Z0, Canada",50.6571754,-128.0087033
"10056 S Shore Rd, Honeymoon Bay, BC V0R 1Y0, Canada",48.81682439999999,-124.1758781
"272 Wallace St, Hope, BC V0X 1L0, Canada",49.378836,-121.4423131
"583 Old Hope Princeton Way, Hope, BC V0X 1L4, Canada",49.3766042,-121.4306891
"28775 Trans - Canada Hwy, Yale, BC V0K 2S0, Canada",49.519718,-121.4209866
"14850 Alpine Blvd, Hope, BC V0X 1L5, Canada",49.27392,-121.231497
"5875 Central Rd, Hornby Island, BC V0R 1Z0, Canada",49.52434479999999,-124.647585
"5766 Horsefly Rd, Horsefly, BC V0L 1L0, Canada",52.3326612,-121.4167149
"2800 Yellowhead Hwy, Houston, BC V0J 1Z1, Canada",54.3895144,-126.6803247
"10101 Beattie Dr, Hudson's Hope, BC V0C 1V0, Canada",56.0283718,-121.9153084
"1310 7th Ave, Invermere, BC V0A 1K4, Canada",50.5031487,-116.0276164
"4860 Athalmer Rd, Athalmer, BC V0A 1K0, Canada",50.5155967,-116.0089085
"2359 BC-3 #93, Jaffray, BC V0B 1T0, Canada",49.3797742,-115.2753217
"1066 Hwy 3A, Kaleden, BC V0H 1K0, Canada",49.3450606,-119.7188657
"405 Victoria St, Kamloops, BC V2C 2A9, Canada",50.675645,-120.3316691
"1821 Trans-Canada Hwy E, Kamloops, BC V2C 3Z7, Canada",50.678632,-120.2821835
"177 Tranquille Rd #2, Kamloops, BC V2B 3E8, Canada",50.6847649,-120.354987
"3200 Valleyview Dr #303, Kamloops, BC V2C 0H1, Canada",50.6707592,-120.2254311
"1380 Hillside Dr, Kamloops, BC V2E 2S3, Canada",50.6548801,-120.3758654
"437 3 Ave, Kamloops, BC V2C 2J5, Canada",50.67374,-120.33417
"2101 Trans-Canada Hwy E #8, Kamloops, BC V2C 4J9, Canada",50.67950039999999,-120.2647723
"3369 Westsyde Rd, Kamloops, BC V2B 0A3, Canada",50.7702055,-120.3429219
"1250 Rogers Way, Kamloops, BC V1S 1N5, Canada",50.6520829,-120.3723078
"843 Desmond St, Kamloops, BC V2B 5K3, Canada",50.7012149,-120.3924148
"1271 Salish Rd, Kamloops, BC V2H 1J9, Canada",50.7118472,-120.3364304
"5220 Bogetti Pl, Kamloops, BC V2C 4Y7, Canada",50.668563,-120.1824207
"1626 Valleyview Dr, Kamloops, BC V2C 3Z5, Canada",50.672729,-120.2947148
"450 Lansdowne St #225, Kamloops, BC V2C 1Y3, Canada",50.67696309999999,-120.3283904
"780 Windsor Ave, Kamloops, BC V2B 2B6, Canada",50.70823,-120.36361
"945 Columbia St W #100, Kamloops, BC V2C 1L5, Canada",50.6686436,-120.3511631
"726 Sydney Ave, Kamloops, BC V2B 1M9, Canada",50.6982837,-120.3608211
"795 McGill Rd Unit 105, Kamloops, BC V2C 0B9, Canada",50.66792299999999,-120.3604
"Yellowhead Hwy, Kamloops, BC, Canada",50.782153,-120.3212064
"1801 Princeton-Kamloops Hwy #402, Kamloops, BC V2E 2J7, Canada",50.65316,-120.36602
"1800 Tranquille Rd #1, Kamloops, BC V2B 3L9, Canada",50.700777,-120.393803
"3020 Westsyde Rd, Kamloops, BC V2B 7G2, Canada",50.7601711,-120.3494019
"490 Paul Lake Rd, Kamloops, BC V2H 1J8, Canada",50.7101678,-120.3274008
"6221 Barnhartvale Rd, Kamloops, BC V2C 5C2, Canada",50.6511605,-120.1567247
"7060 Old Highway 5, Kamloops, BC V2H 0B8, Canada",50.8603979,-120.2648535
"5150 Dallas Dr, Kamloops, BC V2C 6K6, Canada",50.6688286,-120.1870554
"256 Nicola St, Kamloops, BC V2C 2P4, Canada",50.6725169,-120.335095
"1210 Summit Dr, Kamloops, BC V2C 6M1, Canada",50.664964,-120.3523623
"1750 Pier Mac Way #301, Kelowna, BC V1V 2K4, Canada",49.9526124,-119.3878068
"4600 Lakeshore Rd #2, Kelowna, BC V1W 1K2, Canada",49.8173092,-119.4957334
"210 Hwy 33 W #200, Kelowna, BC V1X 2A3, Canada",49.8891639,-119.389341
"3195 Lakeshore Rd, Kelowna, BC V1W 3S9, Canada",49.8590795,-119.4909707
"5315 Main St #104, Kelowna, BC V1W 4V3, Canada",49.7943436,-119.5116303
"590 Hwy 33 W Unit 15, Kelowna, BC V1X 7M3, Canada",49.88997740000001,-119.3974255
"1500 Banks Rd d, Kelowna, BC V1X 7Y1, Canada",49.888085,-119.4281962
"663 Finns Rd, Kelowna, BC V1X 5B7, Canada",49.9076709,-119.3985004
"1171 Harvey Ave, Kelowna, BC V1Y 3H3, Canada",49.8818493,-119.4757793
"2170 Harvey Ave, Kelowna, BC V1Y 6G8, Canada",49.8824153,-119.4384993
"2789 K. L. O. Rd, Kelowna, BC V1W 4A5, Canada",49.8594135,-119.4234914
"319 Queensway, Kelowna, BC V1Y 8E6, Canada",49.8871592,-119.4960322
"3929 Lakeshore Rd, Kelowna, BC V1W 1V3, Canada",49.8422169,-119.4874731
"2040 Joe Riche Rd, Kelowna, BC V1P 1G7, Canada",49.8673137,-119.3457489
"1789 K. L. O. Rd #102, Kelowna, BC V1W 3P3, Canada",49.8605795,-119.4573963
"1940 Kane Rd Unit 102, Kelowna, BC V1V 2M4, Canada",49.9161993,-119.4432905
"1191 Gordon Dr #1171, Kelowna, BC V1Y 3E5, Canada",49.8930677,-119.4765763
"1973 Harvey Ave, Kelowna, BC V1Y 6G5, Canada",49.8814912,-119.4513467
"975 Academy Way #105, Kelowna, BC V1V 3C8, Canada",49.9356012,-119.3989919
"525 BC-97 #150, Kelowna, BC V1Z 4C9, Canada",49.8788382,-119.5358803
"2339 Hwy 97 N #510, Kelowna, BC V1X 4H9, Canada",49.8825308,-119.4308288
"1924 Summit Dr #111, Kelowna, BC V1V 3E9, Canada",49.9013217,-119.4532512
"2395 Gordon Dr #106, Kelowna, BC V1W 3X7, Canada",49.87126319999999,-119.4744963
"3699 BC-97 #103, Kelowna, BC V1X 5C3, Canada",49.9158082,-119.3893706
"1050 Frost Rd, Kelowna, BC V1W 0E4, Canada",49.8047911,-119.4733155
"1135 Stevens Rd #107, West Kelowna, BC V1Z, Canada",49.8648779,-119.5639057
"1978 Kirschner Rd, Kelowna, BC V1Y 4N6, Canada",49.8779157,-119.4588123
"1175 Ellis St, Kelowna, BC V1Y 2C6, Canada",49.89387560000001,-119.4920824
"1677 Commerce Ave, Kelowna, BC V1X 8A9, Canada",49.8932934,-119.4174178
"6808 Westside Rd, Kelowna, BC V1Z 3R8, Canada",50.1195838,-119.5106197
"Kelowna International Airport (YLW), 5533 Airport Way, Kelowna, BC V1V 1S1, Canada",49.9568415,-119.3787414
"591 Lawrence Ave, Kelowna, BC V1Y 6L8, Canada",49.88524959999999,-119.4902171
"1937 Gordon Dr, Kelowna, BC V1Y 3H8, Canada",49.879636,-119.4766097
"3175 Lakeshore Rd, Kelowna, BC V1W 3S9, Canada",49.8591566,-119.4900846
"1876 Cooper Rd #101, Kelowna, BC V1Y 9N6, Canada",49.8805509,-119.445761
"1835 Gordon Dr, Kelowna, BC V1Y 3A4, Canada",49.8816672,-119.4759425
"2280 Baron Rd, Kelowna, BC V1X 7E1, Canada",49.8808529,-119.4342102
"400 Ross St, Kimberley, BC V1A 2C6, Canada",49.6841527,-115.9816879
"C St, Kitimat, BC V8C 1V4, Canada",54.0544156,-128.6709678
"City Centre, Kitimat, BC V8C 1T6, Canada",54.05306479999999,-128.6520561
"874 Tsimshian Blvd, Kitimat, BC V8C 1T5, Canada",54.0542956,-128.6501225
"Kitwanga, BC V0J 1Y5, Canada",55.11167200000001,-128.0267755
"1767 MARINA Pt Rd, East Kootenay B, BC V0B 1T4, Canada",49.17238589999999,-115.2448429
"3989 BC-97, Logan Lake, BC V0K 1W0, Canada",50.6642723,-120.5265487
"1680 Timberlands Rd, Cassidy, BC V9G 1L8, Canada",49.0436223,-123.8833963
"1010 1st Ave, Ladysmith, BC V9G 1A5, Canada",48.9967737,-123.823137
"12590 Trans - Canada Hwy #101, Ladysmith, BC V9G 1M5, Canada",49.0142463,-123.8539734
"9882 BC-97, Lake Country, BC V4V 1V7, Canada",50.0253995,-119.4059363
"9522 Main St #72, Lake Country, BC V4V 1S6, Canada",50.02079939999999,-119.4053311
"11850 Oceola Rd, Lake Country, BC V4V 1E3, Canada",50.0539006,-119.4119034
"56 N Shore Rd, Lake Cowichan, BC V0R 2G0, Canada",48.8268116,-124.052676
"2668 Sooke Rd, Victoria, BC V9B 1Y6, Canada",48.43296170000001,-123.5221699
"737 Goldstream Ave #117, Langford, BC V9B 2X4, Canada",48.4472135,-123.4990145
"2792 Peatt Rd, Victoria, BC V9B 3V3, Canada",48.4499425,-123.5006391
"2903 Sooke Lake Rd, Victoria, BC V9B 4R3, Canada",48.4591117,-123.5536943
"975 Langford Pkwy, Victoria, BC V9B 0A5, Canada",48.4421125,-123.5144176
"2401 A Millstream Rd #131, Victoria, BC V9B 3R5, Canada",48.462505,-123.4978943
"8399 200 St, Langley Twp, BC V2Y 3C2, Canada",49.15465690000001,-122.668615
"8855 202 St., Langley Twp, BC V1M 2N9, Canada",49.1638212,-122.6613923
"19665 Willowbrook Dr #100, Langley, BC V2Y 1A5, Canada",49.1166397,-122.6795982
"21615 Fraser Hwy #100, Langley, BC V3A 4H1, Canada",49.0963814,-122.6239669
"20678 Willoughby Town Centre Dr a110, Langley Twp, BC V2Y 1X6, Canada",49.145151,-122.6483032
"19935 96 Ave, Langley Twp, BC V1M 3C6, Canada",49.177293,-122.6700232
"2364 200 St, Langley Twp, BC V2Z 1W9, Canada",49.0450387,-122.6684797
"20151 Fraser Hwy #101, Langley, BC V3A 4E4, Canada",49.1072391,-122.6626006
"20821 Fraser Hwy #27, Langley, BC V3A 4G7, Canada",49.1027157,-122.6454735
"4143 208 St, Langley, BC V3A 2H3, Canada",49.0765827,-122.6478353
"22071 48a Ave #101, Langley, BC V3A, Canada",49.0902039,-122.6450156
"26426 56 Ave d, Langley Twp, BC V4W 1P2, Canada",49.1035097,-122.4922299
"4010 200 St, Langley, BC V3A 1K7, Canada",49.07500169999999,-122.6691925
"20470 88 Ave, Langley Twp, BC V1M 2Y6, Canada",49.1617903,-122.6551166
"6808 216 St Unit #102, Langley Twp, BC V2Y 0W9, Canada",49.1262633,-122.6239874
"20826 72 Ave #140, Langley Twp, BC V2Y 0Z9, Canada",49.133073,-122.6448303
"300, 7150 200 St #240, Langley, BC V2Y 3B9, Canada",49.1332367,-122.6672983
"20650 Langley Bypass, Langley, BC V3A 6K8, Canada",49.1128394,-122.6506722
"20787 Fraser Hwy, Langley, BC V3A 2K5, Canada",49.1026082,-122.6473938
"19868 Langley Bypass #100, Langley, BC V3A 4E1, Canada",49.1115891,-122.6719114
"19851 Willowbrook Dr, Langley, BC V2Y 1A7, Canada",49.1184065,-122.6733799
"20151 Fraser Hwy, Langley, BC V3A 4K7, Canada",49.1072944,-122.6626291
"7197 Lantzville Rd, Lantzville, BC V0R 2H0, Canada",49.25044459999999,-124.0753883
"5007 Likely St, Likely, BC V0L 1N0, Canada",52.61556479999999,-121.5694003
"1237 Main St, Lillooet, BC V0K 1V0, Canada",50.6864369,-121.9370101
"350 Centre Rd, Lions Bay, BC V0N 2E0, Canada",49.4596774,-123.2362158
"Little Fort, BC V0E 2C0, Canada",51.4239653,-120.2053428
"111 Chartrand Ave, Logan Lake, BC V0K 0B9, Canada",50.4932282,-120.8135876
"Lone Butte, BC V0K 1X0, Canada",51.554651,-121.20105
"7241 Corners Frontage Rd, Lone Butte, BC V0K 1X1, Canada",51.5467466,-120.9140026
"Lone Butte, BC V0K 1X0, Canada",51.554651,-121.20105
"2319 Aberdeen Rd, Lower Nicola, BC V0K 1Y0, Canada",50.1521598,-120.8807552
"2004 Shuswap Ave, Lumby, BC V0E 2G0, Canada",50.2476496,-118.9662792
"Lund, BC, Canada",49.9817127,-124.7590954
"224 Main St, Lytton, BC V0K 1Z0, Canada",50.2303526,-121.581686
"403 Mackenzie Blvd, Mackenzie, BC V0J 2C0, Canada",55.3392178,-123.0929108
"12671 Sunshine Coast Hwy, Madeira Park, BC V0N 2H1, Canada",49.6229924,-124.0208193
"4270 Oxbow Frontage Rd, Malakwa, BC V0E 2J0, Canada",50.9382712,-118.7834853
"7500 BC-3, Manning Park, BC V1K 1P3, Canada",49.0637425,-120.8195766
"809 Sutil Point Rd, Mansons Landing, BC V0P 1K0, Canada",50.0595708,-124.979598
"22648 Dewdney Trunk Rd, Maple Ridge, BC V2X 3K1, Canada",49.2201927,-122.5947833
"11232 Dartford St, Maple Ridge, BC V2X 1V1, Canada",49.2067227,-122.6493242
"11225 240 St, Maple Ridge, BC V2W, Canada",49.2065657,-122.5566684
"22222 Lougheed Hwy., Maple Ridge, BC V2K 2T2, Canada",49.2165228,-122.6064864
"21525 Dewdney Trunk Rd, Maple Ridge, BC V2X 3G5, Canada",49.2207655,-122.6249198
"24133 102 Ave #103, Maple Ridge, BC V2W 2C6, Canada",49.1876924,-122.552759
"21280 Lougheed Hwy., Maple Ridge, BC V2X 2R7, Canada",49.2167693,-122.6312907
"20398 Dewdney Trunk Rd #160, Maple Ridge, BC V2X 3E3, Canada",49.220572,-122.654831
"20690 Lougheed Hwy., Maple Ridge, BC V2X 2P8, Canada",49.21804299999999,-122.6487736
"12968 232 St, Maple Ridge, BC V2X 6V2, Canada",49.2502317,-122.5869969
"23988 Dewdney Trunk Rd, Maple Ridge, BC V4R 1M7, Canada",49.21997,-122.5575621
"22703 Lougheed Hwy., Maple Ridge, BC V2X 0T5, Canada",49.2181994,-122.5924332
"7702 BC-97A, Mara, BC V0E 2K0, Canada",50.67692779999999,-119.0559444
"413 Fernhill Rd, Mayne Island, BC V0N 2J0, Canada",48.8516172,-123.2987881
"6564 BC-97, McLeese Lake, BC V0L 1P0, Canada",52.419637,-122.2954213
"47265 John Hart Hwy, McLeod Lake, BC V0J 0B3, Canada",54.9880763,-123.0337628
"13312 BC-31, Meadow Creek, BC V0G 1N0, Canada",50.2371638,-116.9731739
"1975 Quilchena Ave, Merritt, BC V1K 1B8, Canada",50.110539,-120.79031
"2350 Voght St, Merritt, BC V1K 1H2, Canada",50.11376970000001,-120.7869066
"3623 De Wolf Way, Merritt, BC V1K 1C4, Canada",50.124143,-120.7628373
"6635 N Island Hwy, Merville, BC V0R 2M0, Canada",49.7839094,-125.0585394
"630 Florence St, Midway, BC V0H 1M0, Canada",49.0088816,-118.7749786
"2690 Mill Bay Rd, Mill Bay, BC V0R 2P1, Canada",48.6501917,-123.5586307
"29560 Lougheed Hwy. b101, Mission, BC V4S 1H7, Canada",49.1627109,-122.4059615
"7871 Stave Lake St a16, Mission 1, BC V2V 0C5, Canada",49.1453358,-122.2923485
"8778 Cedar St #103, Mission 1, BC V4S 1A3, Canada",49.1616193,-122.3156921
"35007 Lougheed Hwy., Mission 1, BC V2V 4H7, Canada",49.1498529,-122.2549572
"7160 Oliver St, Mission 1, BC V2V 6K5, Canada",49.1322217,-122.3418678
"32555 London Ave Unit #352, Mission, BC V2V 6M7, Canada",49.1310947,-122.318758
"32516 14 Ave, Mission 1, BC V2V 2N7, Canada",49.1471859,-122.3242116
"33395 1st Ave, Mission 1, BC V2V 1G9, Canada",49.1346555,-122.3003699
"32555 London Ave, Mission 1, BC V2V 6M7, Canada",49.1301826,-122.321631
"32136 Lougheed Hwy., Mission 1, BC V2V 1A4, Canada",49.1310768,-122.333564
"BC-97, British Columbia, Canada",54.6985492,-122.7918979
"660 10th Ave, Montrose, BC V0G 1P0, Canada",49.0793828,-117.5921501
"1 Strathcona Pkwy, Comox-Strathcona C, BC V0R, Canada",49.7415308,-125.3012317
"9332 Front St, Moyie, BC V0B 2A0, Canada",49.2866254,-115.8324351
"515 Broadway St W, Nakusp, BC V0G 1R0, Canada",50.2393412,-117.8044825
"1866 Cedar Rd, Nanaimo, BC V9X 1L7, Canada",49.1059686,-123.8598958
"2211 Jingle Pot Rd, Nanaimo, BC V9R 6T9, Canada",49.1690147,-123.9882264
"1850 Dufferin Crescent, Nanaimo, BC V9S 0A9, Canada",49.1833339,-123.9840473
"508 Eighth St #3, Nanaimo, BC V9R 1B4, Canada",49.1441218,-123.9504119
"514 Haliburton St, Nanaimo, BC V9R 4W2, Canada",49.1539472,-123.9328557
"2000 Island Hwy N #120, Nanaimo, BC V9S 5W3, Canada",49.191657,-123.968103
"3956 Victoria Ave, Nanaimo, BC V9T 2A2, Canada",49.2075607,-124.0138353
"2220 Bowen Rd #14, Nanaimo, BC V9S 1H9, Canada",49.192297,-123.9915906
"1431 Bowen Rd, Nanaimo, BC V9S 1G4, Canada",49.1771946,-123.9698317
"4750 Rutherford Rd #129, Nanaimo, BC V9T 4K6, Canada",49.2180855,-124.0295551
"1594 MacMillan Rd, Nanaimo, BC V9X 1M2, Canada",49.1158031,-123.8640657
"2875 Departure Bay Rd, Nanaimo, BC V9S 3X1, Canada",49.2057314,-123.970338
"3296 Island Hwy N, Nanaimo, BC V9T 1W1, Canada",49.2062526,-124.0079521
"North, 6950 Island Hwy N building d, Nanaimo, BC V9V 1A6, Canada",49.241355,-124.0546409
"6201 Blueback Rd, Nanaimo, BC V9V 1A8, Canada",49.24175169999999,-124.0403397
"278 Selby St, Nanaimo, BC V9R 2R3, Canada",49.1658303,-123.9428136
"6404 Metral Dr #1, Nanaimo, BC V9T 2L8, Canada",49.2313518,-124.0435657
"5775 Turner Rd, Nanaimo, BC V9T 6L8, Canada",49.2245514,-124.0353484
"530 Fifth St #400, Nanaimo, BC V9R 1P1, Canada",49.1561144,-123.9508169
"1273 Is Hwy S #10, Nanaimo, BC V9R 7A4, Canada",49.13039490000001,-123.9225111
"4700 Hammond Bay Rd, Nanaimo, BC V9T 5B1, Canada",49.2316607,-123.977956
"2199 Trans - Canada Hwy, Nanaimo, BC V9X 1S2, Canada",49.0939082,-123.8866406
"2451 Collins Crescent #2, Nanoose Bay, BC V9P 9J9, Canada",49.2729834,-124.1950505
"2414 Island Hwy E, Nanoose Bay, BC V9P 9E3, Canada",49.2611385,-124.1967119
"225 Robinson Ave #207, Naramata, BC V0H 1N0, Canada",49.5979023,-119.6013039
"1121 Lakeside Dr #157, Nelson, BC V1L 4C1, Canada",49.4994095,-117.2876821
"422 Vernon St, Nelson, BC V1L 4H7, Canada",49.4925174,-117.2947573
"616 Vernon St, Nelson, BC V1L 4G1, Canada",49.4932757,-117.2922104
"2635 Greenwood Rd, Nelson, BC V1L 7A1, Canada",49.5713991,-117.2324577
"5110 BC-3A, Nelson, BC V1L 6N6, Canada",49.6114597,-117.1120889
"5644 BC-3A, Nelson, BC V1L 6Y3, Canada",49.491209,-117.4066455
"4545 10 Ave, New Hazelton, BC V0J 2J0, Canada",55.2470065,-127.5834184
"250 Columbia St, New Westminster, BC V3L 1A6, Canada",49.2053401,-122.9035297
"1110 Ewen Ave, New Westminster, BC V3M 5E4, Canada",49.1845451,-122.9495103
"411 Columbia St, New Westminster, BC V3L 1A9, Canada",49.20457709999999,-122.9059229
"517 Seventh St, New Westminster, BC V3M 6A1, Canada",49.21179799999999,-122.920925
"444 E Columbia St, New Westminster, BC V3L 3W9, Canada",49.2295465,-122.8925205
"140 6th St, New Westminster, BC V3L 2Z9, Canada",49.2060212,-122.9117344
"810 Quayside Dr #104, New Westminster, BC V3M 6B9, Canada",49.200165,-122.91149
"48 8th St, New Westminster, BC V3M 3N8, Canada",49.2017454,-122.9125806
"805 Boyd St T140, New Westminster, BC V3M 5X2, Canada",49.19268,-122.94755
"320 6th St, New Westminster, BC V3L 3B2, Canada",49.2094747,-122.9159662
"812 20th St, New Westminster, BC V3M 1L1, Canada",49.2031248,-122.9491091
"BC-20, British Columbia, Canada",52.0185601,-124.2983621
"10330 McDonald Park Rd suite #108, North Saanich, BC V8L 5X7, Canada",48.6608191,-123.4184111
"700 Old Lillooet Rd, North Vancouver, BC V7J 2H5, Canada",49.312943,-123.0265851
"221 W 1st St, North Vancouver, BC V7M 1B3, Canada",49.31341579999999,-123.0828654
"1433 Lonsdale Ave #127, North Vancouver, BC V7M 2H8, Canada",49.3213635,-123.0725887
"unit A, 2989 Lonsdale Ave, North Vancouver, BC V7N 3J3, Canada",49.3363291,-123.0723387
"135 Pemberton Ave, North Vancouver, BC V7P 2R3, Canada",49.317302,-123.1082514
"2180 Dollarton Hwy #100, North Vancouver, BC V7H 0B5, Canada",49.3061872,-123.0148277
"1520 Barrow St, North Vancouver, BC V7J 1B7, Canada",49.3046936,-123.0310431
"3246 Connaught Crescent, North Vancouver, BC V7R 0A7, Canada",49.3387246,-123.1027344
"1133 Mt Seymour Rd d120, North Vancouver, BC V7H 2Y5, Canada",49.3166132,-122.9693157
"333 Brooksbank Ave #900, North Vancouver, BC V7J 3S8, Canada",49.3095559,-123.0407718
"1887 Marine Dr, North Vancouver, BC V7P 1V5, Canada",49.3238063,-123.1197012
"1262 Lynn Valley Rd, North Vancouver, BC V7J 2A3, Canada",49.3372676,-123.0390006
"126 13th St E, North Vancouver, BC V7L 4W8, Canada",49.3201137,-123.0708751
"1250 Marine Dr, North Vancouver, BC V7P 1T2, Canada",49.3247745,-123.1091032
"998 Marine Dr, North Vancouver, BC V7P 3C4, Canada",49.3239437,-123.1018259
"123 Carrie Cates Ct #119, North Vancouver, BC V7M 3K7, Canada",49.30967769999999,-123.0834266
"2187 Oak Bay Ave #118, Victoria, BC V8R 1G1, Canada",48.4263382,-123.3164484
"910 Main St, Okanagan Falls, BC V0H 1R7, Canada",49.34463419999999,-119.571815
"5109 9th Ave, Okanagan Falls, BC V0H 1R7, Canada",49.3446107,-119.5733448
"34017 97th St #170, Oliver, BC V0H 1T9, Canada",49.1705608,-119.5549248
"100 Enterprise Wy b12, Oliver, BC V0H 1T2, Canada",49.2367298,-119.5286662
"4856 Mariposa Rd, Okanagan-Similkameen C, BC V0H 1T1, Canada",49.1384084,-119.587243
"4856 Mariposa Rd, Okanagan-Similkameen C, BC V0H 1T1, Canada",49.1384084,-119.587243
"6201 45 St, Osoyoos, BC V0H 1V6, Canada",49.0284086,-119.4358888
"7603 Spartan Dr, Osoyoos, BC V0H 1V1, Canada",49.0332946,-119.4632237
"6403 Cottonwood Dr, Osoyoos, BC V0H 1V3, Canada",49.0306825,-119.4487385
"16020 Oyama Rd, Lake Country, BC V4V 2E4, Canada",50.1107171,-119.3850194
"2035 Panorama Dr, Panorama, BC V0A 1T0, Canada",50.4579552,-116.2412392
"1209 Island Hwy E #10, Parksville, BC V9P 1R5, Canada",49.3067034,-124.2623912
"160 Corfield St S Unit 1, Parksville, BC V9P 0C1, Canada",49.31948320000001,-124.3068728
"371 Alberni Hwy #1, Parksville, BC V9P 1J9, Canada",49.313395,-124.321697
"163 Alberni Hwy, Parksville, BC V9P 1L9, Canada",49.31900719999999,-124.3141375
"1401 Alberni Hwy, Parksville, BC V9P 2B8, Canada",49.3064159,-124.36008
"491 Island Hwy E, Parksville, BC V9P 1T5, Canada",49.31835969999999,-124.2965673
"818 Island Hwy W, Parksville, BC V9P 2B7, Canada",49.3300012,-124.3450162
"3392 BC-95, Parson, BC V0A 1L0, Canada",51.0813223,-116.6580743
"5025 BC-97, Farmington, BC V0C 1N0, Canada",55.91040839999999,-120.5178271
"5500 Clements Cres #14, Peachland, BC V0H 1X5, Canada",49.784434,-119.7161624
"5854 Beach Ave, Peachland, BC V0H 1X6, Canada",49.7728244,-119.7375505
"7423 Frontier St, Pemberton, BC V0N 0A7, Canada",50.3212379,-122.8068181
"5827 Schooner Way, Pender Island, BC V0N 2M0, Canada",48.7613452,-123.270428
"9801 Spalding Rd, Pender Island, BC V0N 2M3, Canada",48.7473696,-123.2268517
"1173 Government St, Penticton, BC V2A 2M2, Canada",49.4883535,-119.579392
"360 Martin St, Penticton, BC V2A 5K4, Canada",49.4975566,-119.5928013
"1652 Fairview Rd #101, Penticton, BC V2A 6A7, Canada",49.4805491,-119.5937246
"2460 Skaha Lake Rd, Penticton, BC V2A 6E8, Canada",49.46975519999999,-119.5835344
"3502 Skaha Lake Rd, Penticton, BC V2A 3V5, Canada",49.4563952,-119.5867466
"201 Main St, Penticton, BC V2A 5B1, Canada",49.50011199999999,-119.5934291
"2111 Main St #163, Penticton, BC V2A 6W6, Canada",49.4750103,-119.5835641
"2897 Skaha Lake Rd, Penticton, BC V2A 9B8, Canada",49.4638035,-119.5879962
"290 Riverside Dr #152, Penticton, BC V2A 5Y5, Canada",49.4964964,-119.615441
"553 Vees Dr Unit 101, Penticton, BC V2A 7K9, Canada",49.4940185,-119.6032791
"2111 Main St #161, Penticton, BC V2A 6W6, Canada",49.4744298,-119.5846525
"2536 Harper Ranch Rd, Kamloops, BC V2H 1J2, Canada",50.6740352,-120.1532119
"Alaska Hwy & Mile 143 Rd, Peace River, BC V0C 2B0, Canada",57.0385829,-122.5047835
"19167 Ford Rd, Pitt Meadows, BC V3Y 2B6, Canada",49.22266579999999,-122.6904559
"19267 Lougheed Hwy., Pitt Meadows, BC V3Y 1Z2, Canada",49.2310293,-122.6876484
"19040 Lougheed Hwy. #13, Pitt Meadows, BC V3Y 2J2, Canada",49.2319663,-122.6938615
"3835 Redford St, Port Alberni, BC V9Y 3S2, Canada",49.2458567,-124.7922549
"5086 Johnston Rd, Port Alberni, BC V9Y 6G2, Canada",49.2573965,-124.8129335
"4277 Stamp Ave, Port Alberni, BC V9Y 5J7, Canada",49.2536157,-124.8061761
"4940 Cherry Creek Rd, Port Alberni, BC V9Y 8E9, Canada",49.2645676,-124.7889776
"2970 Alberni Hwy, Port Alberni, BC V9Y 8R3, Canada",49.26599950000001,-124.7724612
"2943 10th Ave, Port Alberni, BC V9Y 2N5, Canada",49.23275659999999,-124.7970867
"3684 3rd Ave, Port Alberni, BC V9Y 4G1, Canada",49.2430556,-124.8081803
"4850 Beaver Creek Rd, Port Alberni, BC V9Y 7C8, Canada",49.2611184,-124.8191766
"91 Bayview Dr #282, Port Clements, BC V0T 1R0, Canada",53.6886911,-132.1842557
"2099 Lougheed Hwy., Port Coquitlam, BC V3B 1A8, Canada",49.26645540000001,-122.7729012
"855 Village Dr building v1, Port Coquitlam, BC V3B 0G9, Canada",49.2526364,-122.7373097
"2342 Elgin Ave, Port Coquitlam, BC V3C 3G5, Canada",49.2637735,-122.7814598
"1760 Kingsway Ave, Port Coquitlam, BC V3C 1S5, Canada",49.2530249,-122.7651317
"3255 Coast Meridian Rd, Port Coquitlam, BC V3B 3N3, Canada",49.271846,-122.7572415
"1864 Argue St, Port Coquitlam, BC V3C 5K4, Canada",49.23493089999999,-122.767255
"4030 Byng Rd, Port Hardy, BC V0N 2P0, Canada",50.68827080000001,-127.3857364
"6555 Hardy Bay Rd, Port Hardy, BC V0N 2P0, Canada",50.7127292,-127.4914444
"1817 Campbell Way, Port McNeill, BC V0N 2R0, Canada",50.5864083,-127.0842148
"1703 Broughton Blvd, Port McNeill, BC V0N 2R0, Canada",50.590059,-127.0852716
"3224 St Johns St, Port Moody, BC V3H 2C9, Canada",49.2769688,-122.8325433
"2929 St Johns St #4, Port Moody, BC V3H 2C2, Canada",49.27639449999999,-122.8466095
"2414 St Johns St, Port Moody, BC V3H 2A9, Canada",49.2769778,-122.8573344
"215 Newport Dr, Port Moody, BC V3H 5C7, Canada",49.282647,-122.8269483
"17015 Parkinson Rd, Juan De Fuca (Part 2), BC V0S 1K0, Canada",48.5550446,-124.4050224
"5102 50 Ave, Pouce Coupe, BC V0C 2C0, Canada",55.7162604,-120.1303969
"7010 Duncan St #101, Powell River, BC V8A 1V9, Canada",49.8356557,-124.5204726
"4675 Ontario Ave, Powell River, BC V8A 5B9, Canada",49.8422025,-124.5152684
"6251 Yew St, Powell River, BC V8A 4J9, Canada",49.8731452,-124.5518947
"7074 Westminster St, Powell River, BC V8A 1C5, Canada",49.80244250000001,-124.5177352
"4493 Marine Ave #7, Powell River, BC V8A 2K3, Canada",49.8374383,-124.5277533
"5728 Manson Ave, Powell River, BC V8A 3R8, Canada",49.8714928,-124.5284777
"Powell River, BC, Canada",49.8352352,-124.5247062
"2365 Lang Bay Rd, Powell River, BC V8A 0N5, Canada",49.7796306,-124.3453803
"4327 Nordic Dr, Prince George, BC V2K 3B2, Canada",53.9989661,-122.8002
"6055 Monterey Rd, Prince George, BC V2K 4M2, Canada",53.9788851,-122.7714468
"Tabor Plaza, 100 Tabor Blvd S, Prince George, BC V2M 5R5, Canada",53.9264908,-122.8024652
"4182 15th Ave, Prince George, BC V2M 1V8, Canada",53.9108811,-122.8014171
"2150 Ferry Ave #2324, Prince George, BC V2N 0B1, Canada",53.8898085,-122.7680284
"2626 Vance Rd, Prince George, BC V2N 7A7, Canada",53.8813522,-122.7729205
"2280 John Hart Hwy, Prince George, BC V2K 2X8, Canada",53.9456546,-122.7612528
"1836 Boundary Rd, Prince George, BC V2N 2H8, Canada",53.9021736,-122.6776185
"444 George St, Prince George, BC V2L 1R7, Canada",53.9148641,-122.743074
"6957 Giscome Rd, Prince George, BC V2N 6T5, Canada",53.8979478,-122.619564
"1724 Strathcona Ave, Prince George, BC V2L 4E8, Canada",53.90254239999999,-122.7598294
"433 Carney St, Prince George, BC V2M 2K4, Canada",53.9213462,-122.7697093
"9912 Sintich Rd, Prince George, BC V2N 6E5, Canada",53.8499202,-122.7068335
"6333 Southridge Ave #112, Prince George, BC V2N 6Z4, Canada",53.8640737,-122.7888683
"1933 Queensway, Prince George, BC V2L 1M1, Canada",53.9059957,-122.7426384
"1512 12 Ave, Prince George, BC V2L 3S9, Canada",53.9113889,-122.7550001
"1073 Central St W, Prince George, BC V2M 3C9, Canada",53.91466560000001,-122.7830305
"460 Ospika Blvd S, Prince George, BC V2M 3R3, Canada",53.9213452,-122.7937291
"11478 Carmel Dr, Prince George, BC V2N 5B8, Canada",53.8168813,-122.9130079
"4488 BC-16 #118, Prince George, BC V2N 6X6, Canada",53.8572038,-122.8159046
"9820 Old Cariboo Hwy, Prince George, BC V2N 5V2, Canada",53.8372302,-122.6558797
"555 Central St W, Prince George, BC V2M 3C6, Canada",53.9201811,-122.7836486
"1638 20 Ave, Prince George, BC V2L 4B6, Canada",53.905733,-122.7586787
"1352 11 Ave E, Prince Rupert, BC V8J 2X1, Canada",54.3214756,-130.2938056
"801 2 Ave W, Prince Rupert, BC V8J 1H6, Canada",54.3105008,-130.3297834
"1125 Park Ave, Prince Rupert, BC V8J 1K2, Canada",54.3072171,-130.3334317
"199 3rd St, Princeton, BC V0X 1W0, Canada",49.45700309999999,-120.5097837
"4132 Stewart Rd, Pritchard, BC V0E 2P0, Canada",50.686346,-119.819625
"7904 Railway Ave, Procter, BC V1L 0B5, Canada",49.6185232,-116.9609318
"6120 Island Hwy W, Qualicum Beach, BC V9K 2E4, Canada",49.40576430000001,-124.6333748
"3109 Island Hwy W, Qualicum Beach, BC V9K 2N7, Canada",49.3553145,-124.4627703
"1221 Meadowood Way, Qualicum Beach, BC V9K 2S4, Canada",49.3290336,-124.5622027
"658 Harper Rd, Quathiaski Cove, BC V0P 1N0, Canada",50.0409274,-125.2093114
"2600 3 Ave, Tlell, BC V0T 1Y0, Canada",53.25435299999999,-132.0636058
"254 Front St, Quesnel, BC V2J 2K4, Canada",52.97661040000001,-122.497886
"Schemenaur Rd, Quesnel, BC, Canada",53.0332039,-122.409573
"155 Malcolm Dr #1, Quesnel, BC V2J 3K2, Canada",52.9733459,-122.5052287
"665 Newman Rd, Quesnel, BC V2J 6Z8, Canada",52.9684448,-122.4412206
"707 Barkerville Hwy, Quesnel, BC V2J 6W4, Canada",53.0194145,-122.4767716
"2063 Blackwater Rd, Quesnel, BC V2J 7B4, Canada",53.0257248,-122.5936023
"4888 Edwards Rd, Quesnel, BC V2J 6L1, Canada",52.8327045,-122.4191517
"7538 Main St E, Radium Hot Springs, BC V0A 1M0, Canada",50.6202057,-116.0695793
"Refuge Cove, BC V0P 1P0, Canada",50.1237487,-124.8390156
"112 1 St E, Revelstoke, BC V0E 2S0, Canada",50.9984591,-118.194305
"2108 Big Eddy Rd, Revelstoke, BC V0E 3K0, Canada",50.9980382,-118.2302691
"1925 Laforme Blvd, Revelstoke, BC V0E 2S0, Canada",51.0099944,-118.2195086
"2950 Camozzi Rd #1219, Revelstoke, BC V0E 2S0, Canada",50.95838579999999,-118.163078
"1701 Coursier Ave #2102, Revelstoke, BC V0E 2S0, Canada",50.9762852,-118.1715399
"110 Boyle Ave, Revelstoke, BC V0E 2S0, Canada",51.00039770000001,-118.1977225
"12111 Third Ave #115, Richmond, BC V7E 3K1, Canada",49.1255213,-123.1860281
"5300 Number 3 Rd Unit 868, Richmond, BC V6X 2X9, Canada",49.1760514,-123.1339848
"5931 Alderbridge Wy, Richmond, BC V6X 4C5, Canada",49.1706385,-123.1448409
"10111 Number 3 Rd #200, Richmond, BC V7A 1W6, Canada",49.14009679999999,-123.1373461
"7551 Westminster Hwy, Richmond, BC V6X 1A3, Canada",49.1710583,-123.14179
"9100 Blundell Rd #400, Richmond, BC V6Y, Canada",49.1548849,-123.1230437
"8555 Sea Island Wy, Richmond, BC V6X 3C7, Canada",49.1917242,-123.1287887
"21000 Westminster Hwy #2175, Richmond, BC V6V 2S9, Canada",49.1690641,-122.9902241
"Kingswood Pub, 9371 No 5 Rd Unit 10, Richmond, BC V7A 4E1, Canada",49.144842,-123.092344
"11700 Cambie Rd. #185, Richmond, BC V6X 1L5, Canada",49.1838518,-123.0935209
"9291 Alderbridge Wy, Richmond, BC V6X 0N1, Canada",49.1775385,-123.1186764
"3211 Grant McConachie Wy #1103, Richmond, BC V7B 0A4, Canada",49.1931989,-123.1812194
"Terra Nova Village Shopping centre, 3671 Westminster Hwy, Richmond, BC V7C 5V2, Canada",49.1703522,-123.1831149
"5031 Steveston Hwy, Richmond, BC V7E 2K5, Canada",49.1340994,-123.1691816
"3031 Beckman Pl #180, Richmond, BC V6X 3R3, Canada",49.1916284,-123.1084648
"8180 No 2 Rd Unit 120, Richmond, BC V7C 5K1, Canada",49.1543213,-123.1566176
"11666 Steveston Hwy #3000, Richmond, BC V7A 5J3, Canada",49.13227209999999,-123.0960322
"1504 Eastman Ave, Riondel, BC V0B 2B0, Canada",49.7617432,-116.8561823
"Malcolm Creek Rd, Roberts Creek, BC V0N, Canada",49.4231216,-123.6188792
"2593 Broadwater Rd, Robson, BC V0G 1X0, Canada",49.3335113,-117.6753986
"4105 BC-3, Rock Creek, BC V0H 1Y0, Canada",49.055415,-118.9958281
"5195 Rolla Rd, Rolla, BC V0C 2G0, Canada",55.8986683,-120.1409357
"53560 Bridal Falls Rd, Rosedale, BC V0X 1X1, Canada",49.1861048,-121.7474261
"53730 Bridal Falls Rd, Rosedale, BC V0X 1X1, Canada",49.1873294,-121.741499
"52855 Yale Rd E, Rosedale, BC V0X 1X1, Canada",49.1854813,-121.7665282
"1938 Columbia Ave, Rossland, BC V0G 1Y0, Canada",49.0773656,-117.8014129
"3824 Hayward Ave, Royston, BC V0R 2V0, Canada",49.6433176,-124.9360103
"3810 Shelbourne St, Victoria, BC V8P 5N3, Canada",48.4624582,-123.3332063
"3510 Blanshard St #104, Victoria, BC V8X 1W3, Canada",48.4563745,-123.3733967
"4025 Borden St, Victoria, BC V8X 2E8, Canada",48.4713618,-123.3611508
"4144 Wilkinson Rd #9, Victoria, BC V8Z 5A7, Canada",48.4792395,-123.4103084
"3366 Douglas St, Victoria, BC V8Z 3L3, Canada",48.4513378,-123.3752935
"3170 Tillicum Rd #166, Victoria, BC V8Z 7L6, Canada",48.454967,-123.3951061
"4291 Glanford Ave, Victoria, BC V8Z 3E8, Canada",48.4858588,-123.3876119
"4468 W Saanich Rd, Victoria, BC V8Z 3E9, Canada",48.4926401,-123.3879188
"3837 Cadboro Bay Rd, Victoria, BC V8N 4G1, Canada",48.4611441,-123.2966691
"3671 Uptown Blvd #101, Victoria, BC V8Z 0C8, Canada",48.4550224,-123.37614
"1660 McKenzie Ave #101, Saanich Core, BC V8T 4K8, Canada",48.4690397,-123.3297402
"3991 Quadra St #603, Victoria, BC V8X 1J8, Canada",48.469909,-123.36333
"2134 Keating Cross Rd, Saanichton, BC V8M 2A6, Canada",48.5657432,-123.4117732
"7806 E Saanich Rd, Saanichton, BC V8M 2B3, Canada",48.59434350000001,-123.4173831
"2476 Mt Newton Cross Rd, Saanichton, BC V8M 2B8, Canada",48.5947277,-123.3969317
"115 Fourth St, Salmo, BC V0G 1Z0, Canada",49.19466389999999,-117.2783959
"3710 10 Ave SW, Salmon Arm, BC V1E 3B5, Canada",50.692101,-119.329175
"111 Lakeshore Dr NE, Salmon Arm, BC V1E 4N3, Canada",50.7026467,-119.2839591
"2950 11 Ave NE, Salmon Arm, BC V1E 1V8, Canada",50.708045,-119.2513357
"973 Lakeshore Dr W, Salmon Arm, BC V1E 1E4, Canada",50.6985961,-119.2964344
"948 Salmon River Rd, Salmon Arm, BC V1E 4M1, Canada",50.59087539999999,-119.3644513
"5939 Mellor Frontage Rd, Salmon Arm, BC V1E 2R1, Canada",50.6564385,-119.1994804
"Salt Spring Island, 378 Lower Ganges Rd, Salt Spring Island, BC V8K 2V7, Canada",48.8608963,-123.5116513
"133 Lower Ganges Rd, Salt Spring, BC V8K 2T2, Canada",48.8538653,-123.4999677
"2915 Fulford-Ganges Rd, Long Harbour, BC V8K 1X6, Canada",48.76918120000001,-123.4490148
"343 Alliford Bay Rd, Sandspit, BC V0T 1S1, Canada",53.2362931,-131.8559995
"101 Narvaez Bay Rd, Saturna, BC V0N 2Y0, Canada",48.79314859999999,-123.1799888
"2801 Vancouver Blvd, Lund, BC V8A 0G7, Canada",49.9416453,-124.7832843
"7171 Trans - Canada Hwy, Savona, BC V0K 2J0, Canada",50.75986390000001,-120.8110733
"1590 Sayward Rd, Sayward, BC V0P 1R0, Canada",50.3122876,-125.9184717
"1546 Sayward Rd, Sayward, BC V0N 1A0, Canada",50.3152329,-125.919824
"3877 Squilax - Anglemont Rd, Scotch Creek, BC V0E 1M5, Canada",50.9120511,-119.4577575
"4330 Sunshine Coast Hwy #5, Sechelt, BC V0N 3A1, Canada",49.4405705,-123.7095779
"5740 Teredo St #2, Sechelt, BC V7Z 0J7, Canada",49.4718116,-123.7597353
"1142 Seymour Arm Bay Rd, Seymour Arm, BC V0E 2V2, Canada",51.23751859999999,-118.9344206
"2890 Shawnigan Lake Rd, Shawnigan Lake, BC V0R 2W0, Canada",48.6600541,-123.6280015
"420 Main St, Sicamous, BC V0E 0E8, Canada",50.8363174,-118.9848926
"1118 Riverside Ave, Sicamous, BC V0E 2V1, Canada",50.833472,-118.990669
"2240 Beacon Ave, Sidney, BC V8L 1X1, Canada",48.649533,-123.406274
"2537 Beacon Ave, Sidney, BC V8L 1Y3, Canada",48.64874589999999,-123.3948706
"9429 Canora Rd, Sidney, BC V8L 1P2, Canada",48.63753579999999,-123.4174182
"2345 Beacon Ave, Sidney, BC V8L 1W9, Canada",48.6479677,-123.4021938
"519 Harold St, Slocan, BC V0G 2C0, Canada",49.7672323,-117.4699923
"Slocan Park, BC V0G 2E0, Canada",49.51397,-117.618387
"3939 Yellowhead Hwy #16, Smithers, BC V0J 2N0, Canada",54.7838933,-127.1702472
"1114 Queen St, Smithers, BC V0J 2N3, Canada",54.7804065,-127.174435
"175 1st St, Sointula, BC V0N 0C6, Canada",50.6271605,-127.0170772
"6309 Sooke Rd, Sooke, BC V9Z 0G7, Canada",48.385223,-123.7028876
"5126 Sooke Rd, Sooke, BC V9Z 0E2, Canada",48.3947106,-123.6270414
"6858 W Coast Rd, Sooke, BC V9Z 0V2, Canada",48.3705485,-123.729585
"1249 Trans - Canada Hwy, Sorrento, BC V0E 0C6, Canada",50.8772696,-119.4683381
"3107 Trans - Canada Hwy, Sorrento, BC V0E 2W0, Canada",50.8528447,-119.354201
"614 Douglas Fir Rd, Sparwood, BC V0B 2G1, Canada",49.719169,-114.8940575
"976 BC-95, Spillimacheen, BC V0A 1P0, Canada",50.908507,-116.3675529
"37991 2 Ave, Squamish, BC V8B 0R2, Canada",49.69874249999999,-123.1552305
"38922 Progress Way, Squamish, BC V8B 0K5, Canada",49.7160969,-123.1489659
"38241 Cleveland Ave, Squamish, BC V0N 3G0, Canada",49.7025857,-123.1510741
"3520 Paradise Valley Rd, Brackendale, BC V0N 1H0, Canada",49.83138599999999,-123.1499247
"Stuart Island, Strathcona, BC V0P 1V0, Canada",50.39297269999999,-125.1186075
"Sullivan Bay, BC V0P 1S0, Canada",50.883333,-126.816667
"7519 Prairie Valley Rd #4, Summerland, BC V0H 1Z0, Canada",49.6015506,-119.6658563
"14216 Rosedale Ave, Summerland, BC V0H 1Z0, Canada",49.6062399,-119.678102
"6011 BC-97 #103, Summerland, BC V0H 1Z9, Canada",49.57228139999999,-119.6304283
"3250 Village Way #7, Sun Peaks, BC V0E 5N0, Canada",50.8846713,-119.8813299
"19228 96 Ave #105, Surrey, BC V4N 4C1, Canada",49.1763935,-122.6895607
"6466 176 St Unit 413, Surrey, BC V3S 4G3, Canada",49.1196966,-122.733824
"12922 115 Ave, Surrey, BC V3R 0E2, Canada",49.2112303,-122.8623448
"1763 King George Blvd, Surrey, BC V4A 4X5, Canada",49.03405,-122.77982
"Hillcrest Village Shopping Centre, Hillcrest Village, 18710 Fraser Hwy #1, Surrey, BC V3S 7Y4, Canada",49.1237532,-122.7042659
"12411 King George Blvd, Surrey, BC V3V 3K3, Canada",49.2067182,-122.8782158
"#138, 2725 192 St #138, Surrey, BC V3S 3X1, Canada",49.0520804,-122.6922658
"9167 148 St, Surrey, BC V3R 3W6, Canada",49.1695726,-122.8126771
"13631 80 Ave, Surrey, BC V3W 3C3, Canada",49.1485707,-122.8443075
"15970 Fraser Hwy #701, Surrey, BC V4N 0X8, Canada",49.158071,-122.7817365
"8555 132 St, Surrey, BC V3W 4N8, Canada",49.1583346,-122.8578813
"9500 120 St, Surrey, BC V3V 4C1, Canada",49.1756132,-122.8897464
"14817 108 Ave, Surrey, BC V3R 1W2, Canada",49.1989578,-122.8114452
"10176 154 St, Surrey, BC V3R 0B4, Canada",49.1876792,-122.7947853
"18810 72 Ave, Surrey, BC V4N 6R4, Canada",49.1331718,-122.7011232
"12499 88 Ave, Surrey, BC V3W 1P8, Canada",49.164105,-122.8768583
"13588 88 Ave #103, Surrey, BC V3W 3K8, Canada",49.1618834,-122.8466488
"13456 108 Ave, Surrey, BC V3T 2K1, Canada",49.1986644,-122.8491749
"9900 King George Blvd l1 5, Surrey, BC V3T 0K9, Canada",49.1818395,-122.8443548
"12911 96 Ave, Surrey, BC V3V 7K6, Canada",49.1775159,-122.8647452
"13468 72 Ave, Surrey, BC V3W 2N8, Canada",49.1333069,-122.8493175
"14974 104 Ave, Surrey, BC V3R 1M9, Canada",49.1912921,-122.8073024
"7115 138 St #225, Surrey, BC V3W 7T9, Canada",49.1317264,-122.8401446
"17630 56 Ave, Surrey, BC V3S 1C5, Canada",49.1039263,-122.7339679
"19580 56 Ave, Surrey, BC V3S 6K3, Canada",49.104091,-122.6804512
"16033 108 Ave, Surrey, BC V4N 1P2, Canada",49.1993459,-122.7776649
"5858 176 St, Surrey, BC V3S 4E2, Canada",49.1088737,-122.7347211
"13450 102 Ave unit 170, Surrey, BC V3T 5X3, Canada",49.1874152,-122.8493497
"10 56 Ave #103, Surrey, BC V3S 1C7, Canada",49.10393999999999,-122.7305147
"13977 16 Ave, Surrey, BC V4A 1P8, Canada",49.0313706,-122.834786
"9082 152 St Unit #3, Surrey, BC V3R 4E7, Canada",49.1679672,-122.800778
"14340 64 Ave Unit 102, Surrey, BC V3W 1Z1, Canada",49.1188872,-122.8253409
"14357 104 Ave #101, Surrey, BC V3T 1Y1, Canada",49.1918586,-122.8235694
"3140 King George Blvd, Surrey, BC V4P 1A2, Canada",49.0593124,-122.8098301
"16780 64 Ave, Surrey, BC V3S 3Y2, Canada",49.11866999999999,-122.7574769
"7380 King George Blvd #700, Surrey, BC V3W 5A5, Canada",49.136911,-122.845172
"6361 152 St #304, Surrey, BC V3S 3K8, Canada",49.1185309,-122.8014677
"3020 152 St, Surrey, BC V4P 3N7, Canada",49.0572886,-122.800569
"12877 80 Ave unit 104, Surrey, BC V3W 0E6, Canada",49.1485245,-122.8651887
"7218 King George Blvd #110, Surrey, BC V3W 5A5, Canada",49.1342844,-122.8444314
"14468 72 Ave, Surrey, BC V3S 2E6, Canada",49.13351,-122.8219099
"10216 128 St unit 102a, Surrey, BC V3T 2Z3, Canada",49.1885609,-122.8671987
"16051 24 Ave Unit 20, Surrey, BC V3S 9H7, Canada",49.04595,-122.7772895
"358 175a St, Surrey, BC V3S 9P7, Canada",49.0081962,-122.7357709
"6285 King George Blvd, Surrey, BC V3X 0L3, Canada",49.1170051,-122.8459283
"15388 24 Ave #101, Surrey, BC V4A 2H9, Canada",49.0453536,-122.7964161
"9014 152 St, Surrey, BC V3R 4E7, Canada",49.1670297,-122.7990759
"Building C, 15735 Croydon Dr #112, Surrey, BC V3Z 2L5, Canada",49.047588,-122.7857422
"3033 152 St, Surrey, BC V4P 1G9, Canada",49.0568685,-122.802426
"1641 152 St, Surrey, BC V4A 4N3, Canada",49.0321984,-122.8029424
"2322 160 St, Surrey, BC V3S 9N6, Canada",49.0444158,-122.7787494
"115 Alpine Vw Rd, Tahsis, BC V0P 1X0, Canada",49.9242362,-126.6551498
"4828 Trans - Canada Hwy, Tappen, BC V0E 2X0, Canada",50.7863205,-119.3294707
"BC-20, British Columbia, Canada",52.0185601,-124.2983621
"10440 100 St, Taylor, BC V0C 2K0, Canada",56.1526659,-120.6830162
"1610 Telegraph Cove Rd, Telegraph Cove, BC V0N 3J0, Canada",50.5461898,-126.8342016
"1349 BC-16, Telkwa, BC V0J 2X0, Canada",54.7054099,-127.0547446
"4620 Lakelse Ave, Terrace, BC V8G 1R1, Canada",54.5169199,-128.5885224
"3005 Kalum St, Terrace, BC V8G 4K1, Canada",54.5134852,-128.5872129
"4529 Greig Ave., Terrace, BC V8G 1M6, Canada",54.5153808,-128.5839233
"46 Harbour Rd, Thetis Island, BC V0R 2Y0, Canada",48.9770492,-123.6703262
"3086 BC-16, Thornhill, BC V8G 3N5, Canada",54.5126466,-128.5422327
"35770 BC-16, Tlell, BC V0T 1Y0, Canada",53.5617516,-131.9299291
"120 First St, Tofino, BC V0R 2Z0, Canada",49.1534018,-125.9086365
"21989 Hamlet Frontage Rd, Topley, BC V0J 2Y0, Canada",54.5051719,-126.2972112
"1001 Rossland Ave, Trail, BC V1R 3N7, Canada",49.0965385,-117.7138417
"5990 BC-31, Trout Lake, BC V0G 1R0, Canada",50.6516452,-117.5397522
"4949 Canoe Pass Wy #1828, Tsawwassen, BC V4M 4G9, Canada",49.04218830000001,-123.0874353
"2600 Otter Ave, Tulameen, BC V0X 1W0, Canada",49.5453631,-120.7588359
"275 Southgate St, Tumbler Ridge, BC V0C 2W0, Canada",55.1239948,-120.9972596
"1786 Peninsula Rd, Ucluelet, BC V0R 3A0, Canada",48.94309519999999,-125.5501618
"5555 Island Hwy S, Courtenay, BC V9N 9S2, Canada",49.582192,-124.8857154
"1485 5 Ave, Valemount, BC V0E 2Z0, Canada",52.83133609999999,-119.2774677
"5105 Copper Queen St, Van Anda, BC V8A 1B7, Canada",49.7564692,-124.5539405
"2752 W Broadway, Vancouver, BC V6K 2G4, Canada",49.2639277,-123.1673546
"1450 Marine Dr SW, Vancouver, BC V6P 5Z9, Canada",49.204245,-123.139532
"900 Seymour St, Vancouver, BC V6B 0A8, Canada",49.2794251,-123.1203472
"2289 W Broadway, Vancouver, BC V6K 2E4, Canada",49.2641192,-123.1570499
"3519 E Hastings St, Vancouver, BC V5K 0A3, Canada",49.2812558,-123.0277838
"460 SW Marine Dr, Vancouver, BC V5X 0C6, Canada",49.210185,-123.116238
"962 W King Edward Ave, Vancouver, BC V5Z 2E2, Canada",49.2484425,-123.1256819
"6295 Fraser St, Vancouver, BC V5W 2B5, Canada",49.22749899999999,-123.090868
"522-5525 West Blvd #5503, Vancouver, BC V6M 1T5, Canada",49.2360982,-123.1556962
"2310 Kingsway, Vancouver, BC V5N 0B5, Canada",49.2416342,-123.0580514
"1489 E Hastings St, Vancouver, BC V5L 5B6, Canada",49.2814912,-123.0744177
"2001 Macdonald St, Vancouver, BC V6K 3Y2, Canada",49.268139,-123.1685832
"895 Great Northern Wy, Vancouver, BC V5T 4T5, Canada",49.2659832,-123.0841849
"1408 E 57th Ave, Vancouver, BC V5P 2A9, Canada",49.2179351,-123.0767191
"769 E Hastings St, Vancouver, BC V6A 1R3, Canada",49.28146530000001,-123.0879258
"2018 E 4th Ave, Vancouver, BC V5N 1K4, Canada",49.2666312,-123.0634108
"733 SE Marine Dr, Vancouver, BC V5X 2T9, Canada",49.2113764,-123.0900943
"1275 Granville St, Vancouver, BC V6Z 3B4, Canada",49.2764605,-123.1277666
"Parking lot, 898 W Broadway, Vancouver, BC V5Z 1J8, Canada",49.26312000000001,-123.1231894
"1901 Powell St, Vancouver, BC V5L 1J2, Canada",49.28498949999999,-123.0650712
"1299 Kingsway, Vancouver, BC V5V 3E2, Canada",49.25152509999999,-123.0781967
"2769 E Hastings St, Vancouver, BC V5K 1Z8, Canada",49.2812806,-123.0477178
"7229 Main St #7219, Vancouver, BC V5X 3J3, Canada",49.2189916,-123.1020774
"1075 Hornby St, Vancouver, BC V6Z 2S5, Canada",49.2801268,-123.1261443
"678 Dunsmuir St #30, Vancouver, BC V7Y 1K8, Canada",49.28325659999999,-123.116458
"4430 Dunbar St, Vancouver, BC V6S 2G5, Canada",49.24680439999999,-123.1849521
"555 W 12th Ave #1, Vancouver, BC V5Z 3X7, Canada",49.2609881,-123.1164951
"568 Abbott St, Vancouver, BC V6B 6N7, Canada",49.2801287,-123.1073504
"3045 Main St, Vancouver, BC V5T 3G6, Canada",49.2578813,-123.1015404
"1445 E 41st Ave, Vancouver, BC V5P 1J8, Canada",49.2329632,-123.0759607
"1218 W Pender St, Vancouver, BC V6E 4N1, Canada",49.2884784,-123.1243442
"551 W 57th Ave, Vancouver, BC V6P 0B6, Canada",49.2194132,-123.1179215
"2410 Nanaimo St, Vancouver, BC V5M 1Y1, Canada",49.2627021,-123.0563781
"6542 Victoria Dr, Vancouver, BC V5P 3X8, Canada",49.2245895,-123.0655555
"2136 Western Pkwy, Vancouver, BC V6T 2J2, Canada",49.2660788,-123.2434722
"375 Water St, Vancouver, BC V6B 5C6, Canada",49.28486660000001,-123.1105007
"1116 Hamilton St, Vancouver, BC V6B 6C5, Canada",49.2756188,-123.1212968
"1060 Denman St, Vancouver, BC V6G 2M5, Canada",49.2887068,-123.1393904
"1169 W Broadway, Vancouver, BC V6H 1G1, Canada",49.2636273,-123.1301765
"855 Burrard St, Vancouver, BC V6Z 2K7, Canada",49.2827419,-123.1245187
"5650 Dunbar St, Vancouver, BC V6N 1W7, Canada",49.2350899,-123.1851482
"5701 Granville St, Vancouver, BC V6M 4J7, Canada",49.2337485,-123.1402171
"5679 Main St, Vancouver, BC V5W 2S7, Canada",49.233402,-123.1019464
"1633 Manitoba St, Vancouver, BC V5Y 0B5, Canada",49.2711835,-123.1068929
"8570 River District Crossing, Vancouver, BC V5S 0C2, Canada",49.2057577,-123.0304111
"2409 Burrard St, Vancouver, BC V6J 3J3, Canada",49.2643773,-123.1459427
"1622 Commercial Dr #120, Vancouver, BC V5L 3Y4, Canada",49.2701039,-123.0692754
"433 Robson St, Vancouver, BC V6B 6L9, Canada",49.2797792,-123.1171535
"4333 Fraser St, Vancouver, BC V5V 4G4, Canada",49.2461655,-123.0904827
"2658 Granville St, Vancouver, BC V6H 3H8, Canada",49.2622668,-123.1384351
"3338 W Broadway, Vancouver, BC V6R 2B1, Canada",49.264119,-123.1784622
"4583 W 10th Ave, Vancouver, BC V6R 4N2, Canada",49.2641116,-123.2115572
"2800 E 1st Ave #243, Vancouver, BC V5M 4P3, Canada",49.2692534,-123.0453614
"3415 Cambie St., Vancouver, BC V5Z 2W7, Canada",49.2546831,-123.1155747
"1660 Johnston St, Vancouver, BC V6H 3S2, Canada",49.2721573,-123.135417
"2733 Commercial Dr, Vancouver, BC V5N 4C5, Canada",49.26012739999999,-123.0701818
"2239 W 4th Ave, Vancouver, BC V6K 4S1, Canada",49.26832779999999,-123.1564779
"1811 W 1st Ave, Vancouver, BC V6J 4M6, Canada",49.2707881,-123.1468838
"2721 Main St, Vancouver, BC V5T 3E9, Canada",49.2607642,-123.1012943
"1034 Davie St, Vancouver, BC V6E 1M3, Canada",49.279512,-123.1303045
"510 W 8th Ave, Vancouver, BC V5Z 1C6, Canada",49.264022,-123.1152825
"1441 Cartwright St, Vancouver, BC V6H 3S5, Canada",49.2704495,-123.1355167
"204-1610 Robson St #36, Vancouver, BC V6G 1C7, Canada",49.2894022,-123.1328091
"3669 W 4th Ave, Vancouver, BC V6R 1P2, Canada",49.2687447,-123.1849944
"190 1 St, Vanderhoof, BC V0J 0A8, Canada",54.0137447,-124.0110445
"55110 Yellowhead Hwy, Vanderhoof, BC V2N 6P4, Canada",53.911044,-123.5953309
"4400 32 St #300, Vernon, BC V1T 9G8, Canada",50.2760769,-119.2747455
"6301 Stickle Rd, Vernon, BC V1B 3R4, Canada",50.2980026,-119.2534783
"2922 30th Ave, Vernon, BC V1T 2B7, Canada",50.2634037,-119.2704229
"4513 25 Ave, Vernon, BC V1T 1P5, Canada",50.25638619999999,-119.3069498
"4803 Pleasant Valley Rd, Vernon, BC V1B 3L7, Canada",50.2822493,-119.253213
"1220 Kalamalka Lake Rd, Vernon, BC V1T 6V2, Canada",50.2508493,-119.2630098
"4209 27 St, Vernon, BC V1T 4Y3, Canada",50.2745464,-119.266321
"100 Kalamalka Lake Rd Unit 13, Vernon, BC V1T 9G1, Canada",50.23854559999999,-119.2675305
"2401 58 Ave #200, Vernon, BC V1T 9T5, Canada",50.2893767,-119.2616977
"2705 32 St, Vernon, BC V1T 5L5, Canada",50.2619993,-119.2732877
"7673 Okanagan Landing Rd, Vernon, BC V1H 1G9, Canada",50.2359944,-119.355216
"4900 24 St, Vernon, BC V1T 8X2, Canada",50.2829814,-119.2639448
"301 Village Centre Pl #101, Vernon, BC V1H 1T2, Canada",50.1884243,-119.3880018
"139 Main St #109, Vernon, BC V1B 3W9, Canada",50.3594426,-119.0592313
"5001 Anderson Wy, Vernon, BC V1T 9V1, Canada",50.2839667,-119.2716685
"176 Wilson St #130, Victoria, BC V9A 7N6, Canada",48.43289,-123.38087
"123 Gorge Rd E, Victoria, BC V9A 1L1, Canada",48.4423689,-123.3860248
"425 Simcoe St, Victoria, BC V8V 4T3, Canada",48.4155761,-123.3753525
"427 Belleville St., Victoria, BC V8V 1X3, Canada",48.42104579999999,-123.3732141
"510 Pandora Ave, Victoria, BC V8W 1N5, Canada",48.4287599,-123.36921
"2852 Douglas St, Victoria, BC V8T 4M5, Canada",48.4394988,-123.3684646
"759 Yates St, Victoria, BC V8W 1L4, Canada",48.42584859999999,-123.3626876
"1450 Douglas St, Victoria, BC V8W 2G1, Canada",48.42782649999999,-123.3650035
"919 Douglas St, Victoria, BC V8W 2C2, Canada",48.42321339999999,-123.3653955
"2317 Millstream Rd, Victoria, BC V9B 3R4, Canada",48.4652773,-123.5005786
"5325 Cordova Bay Rd #133, Victoria, BC V8Y 2L3, Canada",48.529115,-123.3727002
"1821 Cook St, Victoria, BC V8T 3P5, Canada",48.4298583,-123.3524148
"304 Cook St, Victoria, BC V8V 3X6, Canada",48.4147715,-123.3567748
"1609C Fort St, Victoria, BC V8R 1H8, Canada",48.42680259999999,-123.3357531
"2020 Country Club Way, Victoria, BC V9B 6R3, Canada",48.4770472,-123.5321138
"3201 Shelbourne St, Victoria, BC V8P 5G9, Canada",48.4485115,-123.3326255
"1505 Admirals Rd #101, Victoria, BC V9A 2P8, Canada",48.4480713,-123.4273739
"2579 Cadboro Bay Rd, Victoria, BC V8R 5J1, Canada",48.4377573,-123.312473
"2670 Fifth St, Victoria, BC V8T 5A8, Canada",48.4390609,-123.3580991
"930 View St, Victoria, BC V8V 3L5, Canada",48.4248333,-123.3583326
"681 Allandale Rd, Victoria, BC V9C 0S2, Canada",48.4269128,-123.5029167
"644 Broughton St, Victoria, BC V8W 2C3, Canada",48.4241994,-123.3662295
"835 Langford Pkwy, Victoria, BC V9B 4V5, Canada",48.4408571,-123.5044063
"498 Island Hwy, Victoria, BC V9B 5Y3, Canada",48.4568815,-123.4595053
"23 Helmcken Rd, Victoria, BC V8Z 5G5, Canada",48.4682056,-123.4278094
"6112 Wasa Lake Park Dr, Wasa, BC V0B 2K0, Canada",49.7907825,-115.746834
"12383 Barkerville Hwy, Wells, BC V0K 0B8, Canada",53.1029078,-121.5687171
"2442 Drought Rd, West Kelowna, BC V4T 1P7, Canada",49.83069589999999,-119.6278108
"1751 Ross Rd, West Kelowna, BC V1Z 3E6, Canada",49.86033459999999,-119.5886888
"855 Anders Rd #100, West Kelowna, BC V1Z 1K2, Canada",49.8596393,-119.5510554
"2210 Boucherie Rd, West Kelowna, BC V1Z 2E5, Canada",49.8730986,-119.54498
"3000 Louie Dr #102, Westbank, BC V4T, Canada",49.8366799,-119.6181914
"2961 Gorman Rd, West Kelowna, BC V4T 1H5, Canada",49.8364298,-119.6561698
"3099 Shannon Lake Rd, West Kelowna, BC V4T 2M2, Canada",49.8485477,-119.6194376
"3645 Gossett Rd #100, West Kelowna, BC V4T 3A9, Canada",49.8327709,-119.6244843
"2475 Dobbin Rd #1, West Kelowna, BC V4T 2E9, Canada",49.8280881,-119.6297117
"6406 Bruce St, West Vancouver, BC V7W 2G6, Canada",49.3736166,-123.275397
"220 16th St, West Vancouver, BC V7V 3R5, Canada",49.327873,-123.1583758
"2477 Marine Dr, West Vancouver, BC V7V 1L3, Canada",49.3349273,-123.1815206
"900 Main St #1c, West Vancouver, BC V7T 1A1, Canada",49.32521029999999,-123.1429464
"100 Park Royal S #104, West Vancouver, BC V7T 1A2, Canada",49.325186,-123.133873
"1650 Marine Dr, West Vancouver, BC V7V 3R6, Canada",49.3279232,-123.1594914
"3020 Louie Dr, West Kelowna, BC V4T 3E1, Canada",49.83593030000001,-119.621296
"Vernon Ave, Kamloops, BC V2B, Canada",50.6955652,-120.356613
"1374 Hunt Rd, Whaletown, BC V0P 1Z0, Canada",50.1018654,-125.0239699
"2129 Lake Placid Rd, Whistler, BC V0N 1B2, Canada",50.09596310000001,-122.9950063
"4573 Chateau Blvd Unit 1, Whistler, BC V8E 1G1, Canada",50.1167874,-122.9474813
"7017 Nesters Rd, Whistler, BC V8E 0E2, Canada",50.127818,-122.9558
"8200 Bear Paw Trail #105, Whistler, BC V8E 0G8, Canada",50.1564956,-122.9545094
"1235 Johnston Rd, White Rock, BC V4B 3Y8, Canada",49.0245855,-122.801458
"15144 North Bluff Rd, White Rock, BC V4A 6G3, Canada",49.0305804,-122.8028747
"15545 Marine Dr, White Rock, BC V4B 1C9, Canada",49.0172113,-122.7917978
"1118 Lakeview Crescent, Williams Lake, BC V2G 1A3, Canada",52.1273846,-122.125552
"Broadway Ave S, Williams Lake, BC V2G, Canada",52.1226894,-122.1074618
"1185 Prosperity Way #300, Williams Lake, BC V2G 3A7, Canada",52.11341729999999,-122.1254175
"245 Donald Rd, Williams Lake, BC V2G 4K4, Canada",52.13508040000001,-122.1349085
"3015 MacKenzie Ave N, Williams Lake, BC V2G 1P5, Canada",52.1472498,-122.1703862
"1124 Dog Creek Rd, Williams Lake, BC V2G 3G7, Canada",52.1001025,-122.1254671
"115 Hickory Rd, Williams Lake, BC V2G 5A1, Canada",52.211823,-122.0908862
"488 Railway Ave #79, Willow River, BC V0J 3C0, Canada",54.0732687,-122.4737578
"1671 BC-93 #95, Windermere, BC V0B 2L2, Canada",50.46722820000001,-115.9789634
"5722 BC-6, Winlaw, BC V0G 2J0, Canada",49.6110462,-117.5623234
"108 Winter Harbour Rd, Mount Waddington B, BC V0N 3L0, Canada",50.5111464,-128.0295252
"16960 BC-97, Wonowon, BC V0C 2N0, Canada",56.7276166,-121.8071837
"3001 Englewood Dr, Woss, BC V0N 3P0, Canada",50.2128869,-126.5947036
"5128 BC-3A bc, Wynndel, BC V0B 2N2, Canada",49.180767,-116.5543136
"9103 BC-3 #95, Yahk, BC V0B 2P0, Canada",49.08594799999999,-116.0892769
"8741 BC-3 #95, Yahk, BC V0B 2P0, Canada",49.0809502,-116.0999868
"7108 1 Ave, Ymir, BC V0G 2K0, Canada",49.283225,-117.215106
"10480 Youbou Rd, Youbou, BC V0R 3E1, Canada",48.87304959999999,-124.2031286
"182 Maquinna Ave, Zeballos, BC V0P 2A0, Canada",49.98059199999999,-126.844765
